stop_id,stop_name,stop_desc,stop_lat,stop_lon,zone_id,stop_url,location_type,parent_station,wheelchair_boarding
ABCH,"Abbé Chérel",,47.21011924,-1.65169222,,,1,,
ABDU,"Abel Durand",,47.22024715,-1.60339908,,,1,,
ABLA,"Avenue Blanche",,47.22982085,-1.58942719,,,1,,
ABOL,"Adrienne Bolland",,47.26791335,-1.47684627,,,1,,
ACHA,"Angle Chaillou",,47.26976827,-1.57211610,,,1,,
ADBO,"Audubon",,47.21401606,-1.72323592,,,1,,
ADEL,"Aimé Delrue",,47.20899731,-1.55009787,,,1,,
ADPI,"Avenue des Pins",,47.25367844,-1.59766118,,,1,,
AECL,"Aéroclub",,47.15926556,-1.59825258,,,1,,
AEPO,"Aéroport",,47.15761252,-1.59654656,,,1,,
AESP,"Aérospatiale",,47.16135928,-1.58704949,,,1,,
AFRA,"Anatole France",,47.22392580,-1.57207157,,,1,,
AGBE,"L'Angebert",,47.14054089,-1.45576884,,,1,,
AGDR,"Angebardière",,47.16974803,-1.50657066,,,1,,
AGVI,"Angevinière",,47.24599501,-1.61164521,,,1,,
AIBU,"Airbus",,47.15855607,-1.59265433,,,1,,
AIGU,"Aiguillon",,47.25447241,-1.49652294,,,1,,
ALCH,"Champ de l'Alouette",,47.28282777,-1.58008630,,,1,,
ALDE,"Allende",,47.17534325,-1.62321096,,,1,,
ALNE,"Aulne",,47.27693730,-1.63907702,,,1,,
AMCA,"Armoricaine",,47.25827307,-1.64747915,,,1,,
AMER,"Américains",,47.23612591,-1.56820260,,,1,,
AMPE,"Ampère",,47.26077064,-1.55320077,,,1,,
ANGE,"Les Anges",,47.27529402,-1.63710197,,,1,,
ANTO,"Antons",,47.25768542,-1.62269552,,,1,,
APAV,"Apave",,47.22539944,-1.64741053,,,1,,
APER,"Ampère",,47.30227711,-1.50789738,,,1,,
APRE,"Ambroise Paré",,47.22907805,-1.60854526,,,1,,
AQUI,"Aquitaine",,47.20985019,-1.61505823,,,1,,
ARAG,"Arago",,47.30355064,-1.50481141,,,1,,
ARBO,"Arbois",,47.25862883,-1.58188527,,,1,,
ARCA,"Arcades",,47.21203639,-1.65355356,,,1,,
ARGO,"Argonautes",,47.30242198,-1.48182549,,,1,,
ARMO,"Armorique",,47.27147205,-1.44534382,,,1,,
AROR,"Armor",,47.23106632,-1.63196468,,,1,,
ATAR,"Antarès",,47.28171329,-1.45983230,,,1,,
AUCP,"La Chapelle Aulnay",,47.30814501,-1.54248265,,,1,,
AUFR,"L'Aufrère",,47.16804829,-1.52507017,,,1,,
AUGE,"Augé",,47.19496578,-1.51736648,,,1,,
AURR,"Aurore",,47.26539845,-1.58145537,,,1,,
AVEN,"Aveneaux",,47.23282778,-1.63050854,,,1,,
BABI,"Barbinière",,47.15985795,-1.48169668,,,1,,
BAGA,"Bagatelle",,47.24354033,-1.62019325,,,1,,
BAIE,"Babinière",,47.25920497,-1.54620749,,,1,,
BAIR,"Bel Air",,47.22578752,-1.55964729,,,1,,
BALI,"Balinière",,47.18462388,-1.55440535,,,1,,
BANS,"Bois des Anses",,47.24669068,-1.49490701,,,1,,
BARR,"La Barre",,47.30881395,-1.38257905,,,1,,
BAST,"Bastille",,47.17903610,-1.59693154,,,1,,
BATI,"Batignolles",,47.25560409,-1.53007173,,,1,,
BAUG,"Baugerie",,47.20378578,-1.52024833,,,1,,
BAVO,"Basse Orévière",,47.22040673,-1.65893741,,,1,,
BBON,"Boisbonne",,47.28686058,-1.50837641,,,1,,
BCES,"Bois Cesbron",,47.26104500,-1.62453204,,,1,,
BCGA,"Bd Charles Gautier",,47.22227709,-1.60725043,,,1,,
BCHE,"Basse Chênaie",,47.24148518,-1.50789102,,,1,,
BCNY,"Bas-Chantenay",,47.19821371,-1.58922286,,,1,,
BCOI,"Branchoire",,47.21782589,-1.60308856,,,1,,
BCTT,"Blanchet",,47.17166881,-1.54329386,,,1,,
BDAN,"Bd des Anglais",,47.22670758,-1.58298444,,,1,,
BDEL,"Baudelaire",,47.23366160,-1.59301502,,,1,,
BDIN,"Bodinière",,47.21000731,-1.64190242,,,1,,
BDLA,"Bout des Landes",,47.26753227,-1.58227339,,,1,,
BDNN,"Bourdonnais",,47.20555361,-1.57998111,,,1,,
BDOU,"Bd de Doulon",,47.22423423,-1.52013619,,,1,,
BDPA,"Bout des Pavés",,47.25278405,-1.57629790,,,1,,
BDRI,"Bourderies",,47.20664094,-1.59565658,,,1,,
BDSP,"Bd des Sports",,47.16559974,-1.46876821,,,1,,
BDUC,"Bourgault-Ducoudray",,47.20246519,-1.54883051,,,1,,
BEDR,"Bel endroit",,47.15470661,-1.63396536,,,1,,
BEGE,"Beauger",,47.23420400,-1.55311981,,,1,,
BEHI,"Béhinière",,47.19776970,-1.79257748,,,1,,
BEIL,"Beillevaire",,47.24938735,-1.60726607,,,1,,
DPBL,"Bêle",,47.26472488,-1.51048865,,,1,,
BEMZ,"Belges-Montbazon",,47.23461282,-1.54098400,,,1,,
BENA,"Beaulieu",,47.20394287,-1.53704358,,,1,,
BEOC,"Belloc",,47.20301761,-1.61468583,,,1,,
BESS,"Bessonneau",,47.21462890,-1.71349968,,,1,,
BETO,"Belle Etoile",,47.28018099,-1.45165075,,,1,,
BEVA,"Beauvaiserie",,47.13625604,-1.65437802,,,1,,
BGAR,"Bonne Garde",,47.19675253,-1.53123758,,,1,,
BGCY,"Beaugency",,47.20379533,-1.49024992,,,1,,
BGLA,"Basse-Goulaine",,47.21036202,-1.46600404,,,1,,
BGNN,"Bourgonnière",,47.20665360,-1.65553130,,,1,,
BGOG,"Bourgogne",,47.24639695,-1.58932164,,,1,,
BGRI,"Bougrière",,47.25501168,-1.47208992,,,1,,
BGSH,"Bergerie",,47.23721277,-1.62871787,,,1,,
BGTT,"Bergeronnettes",,47.23950537,-1.60124722,,,1,,
BGUT,"Louis Breguet",,47.27204868,-1.46615873,,,1,,
BGVI,"Bougainville",,47.19894579,-1.58359414,,,1,,
BHAR,"Bois Hardy",,47.19828056,-1.60046039,,,1,,
BIAN,"Aristide Briand",,47.29630642,-1.49515607,,,1,,
BIEE,"Belle Île",,47.22439959,-1.73275085,,,1,,
BIGN,"Bignons",,47.19981789,-1.49340125,,,1,,
BILE,"Basse Ile",,47.19567263,-1.56326908,,,1,,
BIND,"Basse Indre",,47.19786018,-1.67271604,,,1,,
BIOT,"Bigeottière",,47.25599275,-1.61952741,,,1,,
BJLI,"Bois Jaulin",,47.17757559,-1.63685031,,,1,,
BJOI,"Beaujoire",,47.25877238,-1.52421546,,,1,,
BLAV,"Balavoine",,47.30657698,-1.55428586,,,1,,
BLCH,"Blancho",,47.21315286,-1.73493592,,,1,,
BLDR,"Boulodrome",,47.25762607,-1.51540161,,,1,,
BLEM,"Belem",,47.26563709,-1.45300144,,,1,,
BLGO,"Berligout",,47.21576638,-1.67842053,,,1,,
BLL9,"Bellestre",,47.14846357,-1.69436915,,,1,,
BLLE,"Bellestre",,47.14793376,-1.69406522,,,1,,
BLNO,"Bois de La Noé",,47.14178867,-1.67142407,,,1,,
BLOR,"Blordière",,47.17990799,-1.53398357,,,1,,
BLSL,"Bellevue",,47.23541838,-1.47360365,,,1,,
BLUA,"Bélouga",,47.16579752,-1.58367679,,,1,,
BLVU,"Mendès-France-Bellevue",,47.20889862,-1.61128702,,,1,,
BLZZ,"Berlioz",,47.23961242,-1.57163115,,,1,,
BNCH,"Blanchetière",,47.28967380,-1.55609936,,,1,,
BNET,"Bignonnet",,47.17553725,-1.46511578,,,1,,
BNIE,"Bournière",,47.25439588,-1.45524697,,,1,,
BNLU,"Bénélux",,47.25411511,-1.49914288,,,1,,
BNNO,"Bernanos",,47.20619828,-1.61386335,,,1,,
BNON,"Bignon",,47.24908296,-1.59771985,,,1,,
BNTA,"BN",,47.18394946,-1.49662542,,,1,,
BNVI,"Bonneville",,47.24386466,-1.53636465,,,1,,
BOCE,"Centre de Bouguenais",,47.17867198,-1.62332507,,,1,,
BODO,"Bourdonnières",,47.18642894,-1.52216850,,,1,,
BOFA,"Bouffay",,47.21449215,-1.55274419,,,1,,
BOGE,"Bourgeonnière",,47.25293409,-1.56122882,,,1,,
BOLL,"Bois Tillac",,47.20023993,-1.77135665,,,1,,
BOND,"Bonde",,47.22261834,-1.55214517,,,1,,
BORL,"Bourrelière",,47.15831350,-1.49835581,,,1,,
BOSI,"Boissière",,47.25484432,-1.56599809,,,1,,
BOTI,"Boutière",,47.15724784,-1.46804280,,,1,,
BOUE,"Bio Ouest Laënnec",,47.23270638,-1.64187191,,,1,,
BOVR,"Bouvre",,47.17830167,-1.61312589,,,1,,
BPTY,"Boulay Paty",,47.22891717,-1.57627077,,,1,,
BRAG,"Bois Raguenet",,47.26682671,-1.60034915,,,1,,
BRBI,"Bois Robillard",,47.23514550,-1.51973294,,,1,,
BRCH,"Bréchetière",,47.28477709,-1.50332935,,,1,,
BRDI,"Briandière",,47.18970915,-1.69205782,,,1,,
BRET,"Bretonnière",,47.16651436,-1.46289052,,,1,,
BRGA,"Beauregard",,47.21011169,-1.65711114,,,1,,
BRIN,"Brains",,47.16961500,-1.72303943,,,1,,
BRLA,"Brouillard",,47.27395885,-1.51446158,,,1,,
BRNI,"Baronnière",,47.25959399,-1.60378548,,,1,,
BROS,"Brossais",,47.16343462,-1.58429618,,,1,,
BRTA,"Bretagne",,47.21709924,-1.55822138,,,1,,
BRUN,"Bruneau",,47.22823630,-1.56180896,,,1,,
BRVI,"Boris Vian",,47.15316740,-1.68349931,,,1,,
BSAN,"Bobby Sands",,47.22988866,-1.65303418,,,1,,
BSEJ,"Beauséjour",,47.23795164,-1.58605673,,,1,,
BSIS,"Bossis",,47.21249135,-1.71280909,,,1,,
BSNI,"Bussonnière",,47.26893560,-1.44304738,,,1,,
BSOL,"Beau Soleil",,47.17766190,-1.64478281,,,1,,
BSTI,"Bastière",,47.14843797,-1.45936421,,,1,,
BSYS,"Bois St-Lys",,47.30034674,-1.48194193,,,1,,
BTAI,"Brétinais",,47.22170065,-1.66577687,,,1,,
BTCY,"Lycée Bois Tillac",,47.20343111,-1.77027988,,,1,,
BTEC,"Brétéché",,47.22535286,-1.54850983,,,1,,
BTIE,"Bottière",,47.24023431,-1.51838071,,,1,,
BTLE,"Bouteillerie",,47.22146970,-1.54346856,,,1,,
BTRA,"Bertrand",,47.25712789,-1.57568980,,,1,,
BUGA,"Bugallière",,47.25996214,-1.63768218,,,1,,
BULA,"Butte des Landes",,47.16080750,-1.49378067,,,1,,
BUON,"Bougon",,47.17415130,-1.61070627,,,1,,
BUSS,"Buisson",,47.25990043,-1.48765170,,,1,,
BVDI,"Bouvardière",,47.23843200,-1.59839097,,,1,,
BVER,"Bouvernière",,47.23807536,-1.61145724,,,1,,
BVOI,"Beauvoir",,47.17851239,-1.63057890,,,1,,
BYCE,"Centre de Bouaye",,47.14387489,-1.69164746,,,1,,
BYGA,"Gare de Bouaye",,47.13830447,-1.68093198,,,1,,
BYTO,"Bouaye Coteaux",,47.16448229,-1.67932998,,,1,,
BZAR,"Buzardières",,47.20686215,-1.65990863,,,1,,
CABR,"Cabrol",,47.20327644,-1.58866916,,,1,,
CACE,"Centre de Carquefou",,47.29710622,-1.49005046,,,1,,
CADO,"Cadoire",,47.25673385,-1.48808660,,,1,,
CAGE,"Chalonges",,47.27613635,-1.42939758,,,1,,
CAHL,"Charlière",,47.32102226,-1.55057037,,,1,,
CAIO,"Caillou Blanc",,47.29867619,-1.58548503,,,1,,
CALI,"Californie",,47.19126412,-1.58435283,,,1,,
CANC,"Canclaux",,47.21383670,-1.57477131,,,1,,
CAPE,"Capellia",,47.27971448,-1.55497680,,,1,,
CARQ,"Carquefou",,47.30365167,-1.48548819,,,1,,
CAST,"Castorama",,47.25888736,-1.50729045,,,1,,
CATI,"Cartier",,47.26816466,-1.45556222,,,1,,
CATV,"CAT Vertonne",,47.18425133,-1.48211548,,,1,,
CAUX,"Château D'Aux",,47.18536593,-1.67455481,,,1,,
CBAC,"Bac de Couëron",,47.20598805,-1.75157415,,,1,,
CBEA,"Charbonneau",,47.30066718,-1.48858445,,,1,,
CBGE,"Chapeau Berger",,47.17100393,-1.46875604,,,1,,
CBIN,"Corbinerie",,47.16152930,-1.54216313,,,1,,
CBLE,"Chemin Bleu",,47.17822772,-1.52501183,,,1,,
CBOU,"Couëron Bougon",,47.22508102,-1.73386051,,,1,,
CBRD,"Claude Bernard",,47.22310732,-1.61193903,,,1,,
CBSS,"Cambronne",,47.20658880,-1.50644117,,,1,,
CBTE,"Choblèterie",,47.13621221,-1.46140176,,,1,,
CCAN,"Couchant",,47.26838555,-1.59953772,,,1,,
CCDI,"Cochardières",,47.22981663,-1.63425208,,,1,,
CCHA,"Couchant",,47.27010866,-1.51378720,,,1,,
CCLA,"Cimetière de la Classerie",,47.17078005,-1.55894662,,,1,,
CCOU,"Champ de Courses",,47.24498315,-1.56197183,,,1,,
CCRE,"Chêne Creux",,47.17040404,-1.54874939,,,1,,
CDAN,"Chêne des Anglais",,47.26152094,-1.57362988,,,1,,
CDCO,"Cité des Congrès",,47.21349660,-1.54487307,,,1,,
CDMA,"Champ de Manoeuvre",,47.27228631,-1.49978542,,,1,,
CEDR,"Cèdre",,47.29944073,-1.56025341,,,1,,
CELL,"Le Cellier",,47.32361957,-1.34771920,,,1,,
CFOI,"Champ de Foire",,47.12424017,-1.61890717,,,1,,
CGAU,"Cimetière de la Gaudinière",,47.24292433,-1.58285056,,,1,,
CGLA,"Chêne Gala",,47.18315380,-1.53923829,,,1,,
CHAB,"Chabossière",,47.21544422,-1.68249449,,,1,,
CHBE,"Chambelles",,47.23162967,-1.53058634,,,1,,
CHER,"Cochère",,47.20269502,-1.77828605,,,1,,
CHFL,"Champ Fleuri",,47.14374039,-1.52477013,,,1,,
CHGN,"Châtaigniers",,47.22215639,-1.60287866,,,1,,
CHIN,"La Chesnaie",,47.28165303,-1.53751539,,,1,,
CHLI,"Cholière",,47.25103158,-1.60659368,,,1,,
CHME,"Charmes",,47.19080195,-1.46104727,,,1,,
CHNI,"Charbonnière",,47.26387299,-1.64181008,,,1,,
CHOC,"Chocolaterie",,47.24270600,-1.52794880,,,1,,
CHPO,"Champonnière",,47.16365142,-1.50573699,,,1,,
CHRE,"Chalâtres",,47.23108993,-1.53861300,,,1,,
CHSS,"Chaussée",,47.17664867,-1.52106736,,,1,,
CHTE,"Châtelets",,47.19725099,-1.54052347,,,1,,
CHVE,"Chauvais",,47.33733351,-1.57163166,,,1,,
CHZY,"Chanzy",,47.22356385,-1.54547135,,,1,,
CIFA,"CIFAM",,47.26672891,-1.48814027,,,1,,
CIGL,"Chai Gallais",,47.13687684,-1.72161486,,,1,,
CJOS,"Cimetière de St-Joseph-de-Porterie",,47.26852726,-1.52068599,,,1,,
CLAM,"Clos Ami",,47.21227243,-1.65714025,,,1,,
CLBO,"Clos Bonnet",,47.18917694,-1.56358856,,,1,,
CLCC,"Centre René Gauducheau",,47.23850738,-1.63820369,,,1,,
CLET,"Clétras",,47.25484788,-1.51229125,,,1,,
CLGE,"Chalonges",,47.18916104,-1.47255701,,,1,,
CLMO,"Cimetière de La Montagne",,47.18729268,-1.68645864,,,1,,
CLNA,"Colonac",,47.22412843,-1.60315611,,,1,,
CLOT,"Clotais",,47.19302513,-1.71820783,,,1,,
CLPT,"Clépettre",,47.29664257,-1.54707526,,,1,,
CLRO,"Clos Roux",,47.19812466,-1.74978398,,,1,,
CLSE,"Closeaux",,47.23913119,-1.62793436,,,1,,
CLTT,"Châlet",,47.22945271,-1.54444432,,,1,,
CLUE,"Clouet",,47.16744204,-1.51089539,,,1,,
CLZE,"Clouzeaux",,47.17931014,-1.49259465,,,1,,
CMAR,"Cirque - Marais",,47.21803334,-1.55723184,,,1,,
CMCI,"Clémencière",,47.26953696,-1.43568045,,,1,,
CMLL,"Charmille",,47.25717693,-1.60598862,,,1,,
CMNE,"Commune 1871",,47.19933781,-1.49970975,,,1,,
CMOU,"Clos du Moulin",,47.14512195,-1.52117338,,,1,,
CMRA,"Cormerais",,47.19475301,-1.62715773,,,1,,
CMSY,"Carrière Misery",,47.19987097,-1.58022598,,,1,,
CMUS,"Camus",,47.21921808,-1.57278519,,,1,,
CNAV,"Chantiers Navals",,47.20884925,-1.56779810,,,1,,
CNCE,"Chenonceau",,47.27263937,-1.43444392,,,1,,
CNGO,"Congo",,47.23965236,-1.61011890,,,1,,
CNLA,"Canal",,47.21611800,-1.47170042,,,1,,
CNON,"Chinon",,47.27416824,-1.42899425,,,1,,
CNTR,"Centaure",,47.17007260,-1.62717988,,,1,,
COAY,"Corlay",,47.20794884,-1.64412854,,,1,,
COBI,"Corbières",,47.20163663,-1.48745260,,,1,,
COCH,"Cochard",,47.22402387,-1.55052864,,,1,,
COET,"Les Couëts",,47.18064454,-1.58674555,,,1,,
COHO,"Chohonnière",,47.26319622,-1.48603530,,,1,,
COLI,"Colinière",,47.23560107,-1.50879037,,,1,,
COMM,"Commerce",,47.21337472,-1.55649624,,,1,,
CONI,"Corniche",,47.25278917,-1.59468551,,,1,,
COQU,"Coquelicots",,47.22255351,-1.72890825,,,1,,
CORA,"Conraie",,47.26093354,-1.58827243,,,1,,
COST,"Cousteau",,47.23978169,-1.51305831,,,1,,
COTA,"Coutancière",,47.30620126,-1.56008462,,,1,,
COUD,"Coudray",,47.23222357,-1.54239752,,,1,,
CP3R,"Chapelles",,47.16354476,-1.53847942,,,1,,
CP4L,"Chapelle Laënnec",,47.23536751,-1.63783808,,,1,,
CPER,"Copernic",,47.21490855,-1.56440687,,,1,,
CPGT,"Capitaine Grant",,47.26174126,-1.66956890,,,1,,
CPRE,"Chaupières",,47.24317344,-1.49505175,,,1,,
CQGU,"Chat-qui-Guette",,47.19196413,-1.69711679,,,1,,
CQLU,"Coqueluchon",,47.18410051,-1.47034749,,,1,,
CRAI,"Clairais",,47.27556910,-1.43848811,,,1,,
CRBE,"Corberie",,47.15205072,-1.52404890,,,1,,
CRCE,"Courocerie",,47.25176590,-1.49937116,,,1,,
CREZ,"Château de Rezé",,47.18480505,-1.55970300,,,1,,
CRME,"Crémetterie",,47.21821159,-1.60761172,,,1,,
CRNO,"Corbon",,47.21332134,-1.46092737,,,1,,
CROU,"Chemin Rouge",,47.25160798,-1.51761350,,,1,,
CRPO,"Criport",,47.15831755,-1.50363779,,,1,,
CRQU,"Place du Cirque",,47.21696856,-1.55675776,,,1,,
CRRO,"Claire Roman",,47.15444566,-1.59169260,,,1,,
CRSA,"Croissant",,47.24101799,-1.52994279,,,1,,
CRTI,"Crétinières",,47.27653350,-1.55315709,,,1,,
CRVA,"Cravate",,47.24336474,-1.58843772,,,1,,
CSAY,"Chassay",,47.24524395,-1.48422289,,,1,,
CSCL,"Cimetière St-Clair",,47.21657334,-1.59228862,,,1,,
CSER,"La Chapelle-sur-Erdre",,47.29941978,-1.55018986,,,1,,
CSGR,"Cassegrain",,47.18787872,-1.48950839,,,1,,
CSHB,"Carrières",,47.20815820,-1.63806398,,,1,,
CSIB,"Clos Siban",,47.21021181,-1.64641182,,,1,,
CSMP,"Casimir Périer",,47.23197965,-1.56829658,,,1,,
CSRI,"Classerie",,47.16808464,-1.55875054,,,1,,
CSTE,"Casterneau",,47.22714308,-1.53277404,,,1,,
CSVA,"Conservatoire",,47.20704960,-1.53303919,,,1,,
CTAR,"Cotalard",,47.28614972,-1.53770908,,,1,,
CTBO,"Coteaux",,47.18437689,-1.66932799,,,1,,
CTEU,"Caboteurs",,47.18647549,-1.58743716,,,1,,
CTIE,"Châtelier",,47.18483577,-1.59326213,,,1,,
CTLI,"Courteline",,47.23657256,-1.58688127,,,1,,
CTNS,"Carterons",,47.21860614,-1.73865625,,,1,,
CTOR,"Clos Toreau",,47.19412346,-1.52906560,,,1,,
CTRE,"Chantrerie",,47.28170938,-1.51700539,,,1,,
CTYY,"Coty",,47.24907482,-1.48820006,,,1,,
CUGA,"Gare de Couëron",,47.22182251,-1.72409285,,,1,,
CUIE,"Chausserie",,47.14911471,-1.70405679,,,1,,
CUPI,"Coupries",,47.19158591,-1.46731259,,,1,,
CURI,"Curie",,47.19046894,-1.48744749,,,1,,
CUVI,"Cuvier",,47.21046286,-1.57333508,,,1,,
CVBL,"Cheveux Blancs",,47.26545709,-1.63504746,,,1,,
CVDO,"Cimetière de Vieux Doulon",,47.23849235,-1.50040266,,,1,,
CVER,"Chapeau Verni",,47.18912476,-1.50888667,,,1,,
CVLE,"Chevalerie",,47.25221480,-1.54517072,,,1,,
CVNI,"Chauvinière",,47.25157511,-1.57210879,,,1,,
CVRN,"Cheverny",,47.24595568,-1.60489667,,,1,,
CVTI,"Convention",,47.21063914,-1.58669791,,,1,,
CXFS,"Croix des Fosses",,47.21332275,-1.46634663,,,1,,
CZIN,"Chézine",,47.23372865,-1.59897057,,,1,,
DAKK,"Danemark",,47.26097867,-1.49857702,,,1,,
DALB,"Dalby",,47.22516954,-1.52985488,,,1,,
DANU,"Danube",,47.30446031,-1.50183156,,,1,,
DAVU,"Davum",,47.26474579,-1.49633352,,,1,,
DAYA,"Dayat",,47.20086884,-1.67426307,,,1,,
DCAN,"Duchesse Anne-Château",,47.21620187,-1.54744873,,,1,,
DCFF,"Du Chaffault",,47.20764712,-1.58198473,,,1,,
DEMO,"Desmoulins",,47.23226754,-1.52230218,,,1,,
DERV,"Dervallières",,47.22880529,-1.59807941,,,1,,
DIAN,"Diane",,47.23966265,-1.57811502,,,1,,
DIDE,"Espace Diderot",,47.18451386,-1.56298460,,,1,,
DLCR,"Delacroix",,47.22360815,-1.58936784,,,1,,
DLLE,"Drillet",,47.23483550,-1.66623091,,,1,,
DLME,"Delorme",,47.21571270,-1.56459769,,,1,,
DMAI,"Domaine",,47.17835436,-1.46980683,,,1,,
DMUR,"Dumont d'Urville",,47.22587166,-1.63633918,,,1,,
DNAI,"Danais",,47.21360403,-1.58955904,,,1,,
DOCE,"Doucet",,47.27796857,-1.63266866,,,1,,
DOLT,"Dolto",,47.21650999,-1.63617274,,,1,,
DOME,"Doumer",,47.22226896,-1.57842860,,,1,,
DOTT,"Douettée",,47.20773331,-1.49912218,,,1,,
DPTE,"Déportés",,47.19715306,-1.49228559,,,1,,
DRAD,"Désirade",,47.27819851,-1.48446172,,,1,,
DRID,"Druides",,47.23861884,-1.50742048,,,1,,
DROI,"Droitière",,47.30821718,-1.37313692,,,1,,
DSAI,"Desaix",,47.22624932,-1.54328641,,,1,,
DSNE,"Desnerie",,47.27793949,-1.54081936,,,1,,
DUKA,"Dukas",,47.23522868,-1.60251920,,,1,,
DUNA,"Dunant",,47.24391964,-1.52129149,,,1,,
DUTR,"Duguay Trouin",,47.22429674,-1.61665433,,,1,,
EBCA,"Embarcadère",,47.19408468,-1.64653306,,,1,,
ECBU,"Écobuts",,47.19393956,-1.50764703,,,1,,
ECHO,"Échoppes",,47.14306629,-1.68643787,,,1,,
ECOS,"Écosse",,47.21510965,-1.52635200,,,1,,
ECSU,"École Centrale-Audencia",,47.24812474,-1.55161943,,,1,,
ECTE,"Enchanterie",,47.23041759,-1.52375537,,,1,,
EDIP,"Edith Piaf",,47.22827482,-1.62408849,,,1,,
EDNA,"Édit de Nantes",,47.21440626,-1.56860019,,,1,,
EDRE,"Erdreau",,47.29105998,-1.50126590,,,1,,
EGAN,"Eglantine",,47.23508118,-1.58835873,,,1,,
EGLI,"Egalité",,47.20939483,-1.58885365,,,1,,
EINS,"Einstein",,47.26413048,-1.57104228,,,1,,
EMBE,"Embellie",,47.26554307,-1.51835371,,,1,,
ENCO,"Ennerie-Corbon",,47.14197580,-1.70470652,,,1,,
ENRI,"Ennerie",,47.14026156,-1.70734952,,,1,,
EPEL,"Écoles",,47.19752281,-1.75912140,,,1,,
EPIN,"Épinais",,47.13632633,-1.61055959,,,1,,
EPYY,"Epinay",,47.29234637,-1.48692971,,,1,,
EQPE,"Équipement",,47.22381394,-1.57536864,,,1,,
ERAC,"Erdre Active",,47.28314269,-1.54410872,,,1,,
ERDI,"Éraudière",,47.24264226,-1.53521809,,,1,,
ESCA,"Escall",,47.19939893,-1.50328200,,,1,,
ESOR,"Écoles",,47.14544898,-1.52753353,,,1,,
ESUE,"Eugène Sue",,47.23328862,-1.59602902,,,1,,
EUCA,"Europe",,47.26016090,-1.50420697,,,1,,
EUVE,"Europe",,47.17300614,-1.47629459,,,1,,
EVET,"École Vétérinaire",,47.29007265,-1.52277102,,,1,,
EVRD,"Evardière",,47.29879071,-1.56616373,,,1,,
FACU,"Facultés",,47.24682767,-1.55536079,,,1,,
FADI,"Fardière",,47.19850886,-1.60695252,,,1,,
FALI,"Fallières",,47.22494189,-1.57928530,,,1,,
FANE,"Faneurs",,47.21367931,-1.70205892,,,1,,
FATA,"Fantaisie",,47.25352966,-1.57555877,,,1,,
FAUV,"Fauvelière",,47.28283317,-1.50491020,,,1,,
FBLA,"Fresche Blanc",,47.25290149,-1.55686119,,,1,,
FDDR,"Fac de Droit",,47.24378992,-1.55196551,,,1,,
FDLE,"Fac de Lettres",,47.24541603,-1.55181925,,,1,,
FERI,"Ferrière",,47.24445633,-1.59076630,,,1,,
FFAU,"Félix Faure",,47.22698903,-1.56938663,,,1,,
FGRI,"Fief Guérin",,47.14388036,-1.66049085,,,1,,
FLAN,"Flandre",,47.28575364,-1.54681321,,,1,,
FLEU,"Fleuriaye",,47.29850645,-1.49941791,,,1,,
FLRI,"Floride",,47.21347735,-1.60382584,,,1,,
FLTR,"Flora Tristan",,47.17633201,-1.54389596,,,1,,
FLUR,"Fleurs",,47.21582344,-1.71795278,,,1,,
FMIT,"François Mitterrand",,47.22210178,-1.63857119,,,1,,
FNLL,"Fresnel",,47.24304037,-1.52334410,,,1,,
FNSO,"Fenaison",,47.26970664,-1.59248947,,,1,,
FOCH,"Foch-Cathédrale",,47.21925313,-1.55044639,,,1,,
FOND,"Fonderies",,47.20641203,-1.54396268,,,1,,
FORU,"Forum d'Orvault",,47.25443054,-1.61517856,,,1,,
FOTA,"Fontaine",,47.20554189,-1.48918540,,,1,,
FOUL,"Foulquier",,47.30981755,-1.54631189,,,1,,
FRAC,"Frachon",,47.21911170,-1.62076603,,,1,,
FRBA,"Frébaudière",,47.27223426,-1.62655239,,,1,,
FRCH,"Fraîches",,47.17455019,-1.48948053,,,1,,
FRET,"Forêt",,47.24434768,-1.57541602,,,1,,
FRGA,"Frégate",,47.23524567,-1.47610372,,,1,,
FRII,"François II",,47.21839050,-1.68324467,,,1,,
FRKL,"Franklin",,47.22599403,-1.61968859,,,1,,
FRMO,"Frémoire",,47.15328061,-1.47634280,,,1,,
FRNE,"Frênes",,47.25323850,-1.48757200,,,1,,
FRON,"Frêne Rond",,47.19026089,-1.49641680,,,1,,
FTAB,"Félix Tableau",,47.18801317,-1.54738515,,,1,,
FTDO,"Fructidor",,47.24010857,-1.55963273,,,1,,
GADO,"Gandonnière",,47.30703916,-1.54054855,,,1,,
GAGN,"Gagnerie",,47.23223083,-1.50722581,,,1,,
GAIL,"Garillère",,47.19240751,-1.52114610,,,1,,
GALH,"Galheur",,47.16597257,-1.58118031,,,1,,
GAMB,"Gambetta",,47.22352508,-1.53859380,,,1,,
GARO,"Garotterie",,47.12620991,-1.62710292,,,1,,
GATI,"Gâtine",,47.21341590,-1.66053039,,,1,,
GAUT,"Gautellerie",,47.17742295,-1.60196482,,,1,,
GBLO,"Grand Blottereau",,47.22975836,-1.51114692,,,1,,
GBNI,"Guiblinière",,47.29231724,-1.52028568,,,1,,
GBTA,"Grande-Bretagne",,47.26220345,-1.50236925,,,1,,
GCAR,"Grand Carcouët",,47.23109211,-1.59176840,,,1,,
GCEN,"Grande Censive",,47.25214465,-1.54992762,,,1,,
GCHE,"Gachet",,47.29336602,-1.52393558,,,1,,
GCSO,"Glacisol",,47.25150915,-1.50437908,,,1,,
GDCH,"Gare de Chantenay",,47.19788570,-1.59355966,,,1,,
GDEN,"Goldens",,47.16175622,-1.50045104,,,1,,
GDNN,"Gendronnerie",,47.12732846,-1.63906358,,,1,,
GDOU,"Grande Ouche",,47.18133597,-1.57966252,,,1,,
GDPI,"Grande Pièce",,47.19907160,-1.51039424,,,1,,
GDRE,"Guindré",,47.23921601,-1.53801165,,,1,,
GELL,"Grande Noëlle",,47.16241793,-1.50221513,,,1,,
GERA,"Géraudière",,47.26173999,-1.56716305,,,1,,
GESV,"Gesvrine",,47.26981296,-1.55213869,,,1,,
GEVR,"Gesvres",,47.26371152,-1.54878406,,,1,,
GGAU,"Gergaudière",,47.28965609,-1.58588183,,,1,,
GGNO,"Grignon",,47.21647189,-1.46643829,,,1,,
GGUI,"Gauguin",,47.16669088,-1.55468713,,,1,,
GIAR,"Gilarderie",,47.18589884,-1.68252224,,,1,,
GIBR,"Gibraye",,47.20495660,-1.51755738,,,1,,
GIND,"Gare d'Indre",,47.20496928,-1.66254284,,,1,,
GIQU,"Gicquelière",,47.25814223,-1.45908439,,,1,,
GLAU,"Grillaud",,47.22026571,-1.58171923,,,1,,
GLDE,"Grande Lande",,47.19229235,-1.49761927,,,1,,
GLEI,"Grolerie",,47.17268334,-1.47244142,,,1,,
GLIE,"Gilière",,47.29922316,-1.55335302,,,1,,
GLNE,"Galarne",,47.20814414,-1.52994633,,,1,,
GLOU,"Grange au Loup",,47.26383873,-1.51545241,,,1,,
GMAR,"Gare Maritime",,47.20703980,-1.57334929,,,1,,
GMOL,"Guy Mollet",,47.24928020,-1.55474569,,,1,,
GNRA,"Gréneraie",,47.19948912,-1.53288896,,,1,,
GOBI,"Gobinière",,47.24963128,-1.58691364,,,1,,
GOLF,"Golf",,47.23649968,-1.60486096,,,1,,
GONI,"Gournière",,47.26828472,-1.54938114,,,1,,
GPOR,"Grand Portail",,47.20142037,-1.52364591,,,1,,
GPRO,"Gare de Pont Rousseau",,47.19308111,-1.54933848,,,1,,
GRAM,"Grammoire",,47.18364959,-1.47308957,,,1,,
GRCH,"Grand Chemin",,47.19735309,-1.78408692,,,1,,
GRET,"Gare de l'Etat",,47.20470120,-1.55996222,,,1,,
GRIM,"Grimm",,47.21609703,-1.64552801,,,1,,
GRLI,"Graslin",,47.21269365,-1.56332010,,,1,,
GRMA,"Grimau",,47.22829746,-1.65476667,,,1,,
GRPO,"Gripots",,47.19248962,-1.49168774,,,1,,
GRTE,"Garotterie",,47.22499944,-1.60665786,,,1,,
GRVI,"Guérivières",,47.20509408,-1.46734771,,,1,,
GRZI,"Grezillières",,47.21436811,-1.47831696,,,1,,
GSAN,"George Sand",,47.16575765,-1.54497861,,,1,,
GSEN,"Grasse Noue",,47.28024494,-1.58188223,,,1,,
GSIN,"Grassinière",,47.16583171,-1.50787434,,,1,,
GSNO,"Gare Nord",,47.21780375,-1.54267391,,,1,,
GSSU,"Gare Sud",,47.21529692,-1.54222777,,,1,,
GTAE,"Grootaers",,47.23933968,-1.58496831,,,1,,
GTLA,"Garettes-Landreau",,47.27317170,-1.63072434,,,1,,
GTVE,"Gaston Veil",,47.21016254,-1.55560165,,,1,,
GULO,"Guilloterie",,47.17236984,-1.55721314,,,1,,
GURO,"Gustave Roch",,47.20406998,-1.55198669,,,1,,
GVNO,"Gare de Vertou Nord",,47.18707351,-1.47848557,,,1,,
GVSU,"Gare de Vertou Sud",,47.18587233,-1.47668256,,,1,,
HALU,"Haluchère - Batignolles",,47.24892458,-1.52244622,,,1,,
HARO,"Harouys",,47.21689462,-1.56693114,,,1,,
HAUB,"Haubans",,47.21462644,-1.53001825,,,1,,
HAVE,"Halvêque",,47.25709026,-1.52065450,,,1,,
HBAN,"Hangar à Bananes",,47.20029693,-1.57298880,,,1,,
HBDE,"Halbarderie",,47.26828686,-1.43810608,,,1,,
HBLI,"Hôpital Bellier",,47.22101603,-1.52479552,,,1,,
HBRA,"Herbray",,47.15048552,-1.47099504,,,1,,
HCOU,"Hauts de Couëron",,47.24056965,-1.66970210,,,1,,
HDIE,"Haudrière",,47.15447112,-1.46758151,,,1,,
HERM,"Hermeland",,47.22996584,-1.61680890,,,1,,
HFLE,"Hameau Fleuri",,47.25097895,-1.58965810,,,1,,
HFVE,"Haute Forêt",,47.16831427,-1.46565950,,,1,,
HILE,"Haute Ile",,47.19473647,-1.55632975,,,1,,
HIND,"Haute Indre",,47.19541271,-1.64980340,,,1,,
HIPP,"Hippodrome",,47.24767069,-1.56772304,,,1,,
HLAN,"Haute Lande",,47.15477271,-1.52345288,,,1,,
HMLL,"Houmaille",,47.18910344,-1.58696919,,,1,,
HODI,"Hôtel Dieu",,47.21151388,-1.55292423,,,1,,
HOGR,"Hongrie",,47.21590797,-1.52403029,,,1,,
HOSE,"Housseau",,47.28079780,-1.49841134,,,1,,
HPLA,"Hôpital Laënnec",,47.23688456,-1.64086027,,,1,,
HREG,"Hôtel de Région",,47.21034330,-1.52614007,,,1,,
HRLL,"Hérelle",,47.20136272,-1.58667861,,,1,,
HVCQ,"Mairie de Carquefou",,47.29889879,-1.49031126,,,1,,
HVNA,"Hôtel de Ville",,47.21777194,-1.55430456,,,1,,
ICAM,"ICAM",,47.27374785,-1.50187525,,,1,,
IDFR,"Île de France",,47.16941272,-1.46785057,,,1,,
IDLO,"Îles de Loire",,47.21028204,-1.49018517,,,1,,
IDNA,"Ile de Nantes",,47.20595616,-1.53877527,,,1,,
IMPR,"Imprimeurs",,47.23866470,-1.67008841,,,1,,
INLA,"Internat Laënnec",,47.23500246,-1.64058805,,,1,,
INRE,"Indre",,47.20116504,-1.66833797,,,1,,
IRLA,"Irlandais",,47.22327438,-1.60705954,,,1,,
IROI,"Iroise",,47.24818171,-1.53654509,,,1,,
ISLE,"Islettes",,47.26333978,-1.47625538,,,1,,
IUTH,"IUT",,47.29786834,-1.50506472,,,1,,
JALI,"Jalière",,47.26423951,-1.59698311,,,1,,
JAME,"Jamet",,47.21007683,-1.60317888,,,1,,
JANA,"Jaunais",,47.17604452,-1.53370427,,,1,,
JAPY,"Japy",,47.25936667,-1.51182285,,,1,,
JARI,"Jarriais",,47.21293011,-1.71826229,,,1,,
JAUR,"Jacqueline Auriol",,47.27142526,-1.47140712,,,1,,
JBAR,"Jean Bart",,47.19921042,-1.67532819,,,1,,
JBNA,"Jeanne Bernard",,47.23525187,-1.59128052,,,1,,
JCAR,"Jacques Cartier",,47.22389061,-1.63632425,,,1,,
JCDM,"Jacques Demy",,47.15814541,-1.68281651,,,1,,
JCOU,"Joncours",,47.22000538,-1.58672381,,,1,,
JDGA,"Jardins de Gaïa",,47.15749772,-1.67814597,,,1,,
JEVV,"Jean V",,47.21193472,-1.56445440,,,1,,
JFER,"Jules Ferry",,47.25071836,-1.48752402,,,1,,
JFRA,"Jean Fraix",,47.18612433,-1.54196353,,,1,,
JGUE,"Jaguère",,47.17552139,-1.56787742,,,1,,
JHDI,"Jahardières",,47.12539960,-1.64274770,,,1,,
JJCE,"Jean Jaurès",,47.30132429,-1.54979885,,,1,,
JJNA,"Jean Jaurès",,47.21838897,-1.56003382,,,1,,
JLIE,"Joliverie",,47.18994470,-1.51938315,,,1,,
JLVE,"Joliverie",,47.18967793,-1.51658939,,,1,,
JMAC,"Jean Macé",,47.20055415,-1.58926240,,,1,,
JMLI,"Jean Moulin",,47.20674389,-1.60055442,,,1,,
JMON,"Jean Monnet",,47.16625637,-1.46524928,,,1,,
JNAI,"Jaunaie",,47.21889815,-1.72783718,,,1,,
JNIG,"Jean Ingres",,47.22236358,-1.59681234,,,1,,
JNLI,"Jonelière",,47.25164252,-1.54076407,,,1,,
JOTE,"Jouetterie",,47.13147138,-1.66246897,,,1,,
JPER,"Jean Perrin",,47.18125645,-1.56076577,,,1,,
JPTR,"Jupiter",,47.28463756,-1.45580486,,,1,,
JROS,"Jean Rostand",,47.24579942,-1.59364253,,,1,,
JTIC,"Justice",,47.20946350,-1.63155198,,,1,,
JUIV,"Juiverie",,47.21068766,-1.62476931,,,1,,
JUME,"Jumelière",,47.29430114,-1.48773150,,,1,,
JVAL,"Jules Vallès",,47.17324888,-1.57114591,,,1,,
JVNA,"Jules Verne",,47.24882713,-1.51728077,,,1,,
JVRA,"Janvraie",,47.19994542,-1.61234453,,,1,,
KERE,"Keren",,47.24440692,-1.53362652,,,1,,
KOEN,"Koenig",,47.19812540,-1.61551398,,,1,,
KOUF,"Koufra",,47.25034433,-1.53114633,,,1,,
LABE,"Lac de Beaulieu",,47.21933051,-1.69243768,,,1,,
LACH,"L'Arche",,47.21282847,-1.70834000,,,1,,
LADO,"Ladoumègue",,47.29614184,-1.48653946,,,1,,
LAGE,"Largeau",,47.19503280,-1.50997182,,,1,,
LAHA,"La Haie",,47.26094875,-1.47502649,,,1,,
LAIL,"Les Ailes",,47.17021722,-1.57554737,,,1,,
LALL,"Lallié",,47.22668625,-1.54635903,,,1,,
LAMA,"Lamartine",,47.21648755,-1.57893087,,,1,,
LANA,"Launay",,47.26546719,-1.63213722,,,1,,
LAUR,"Lauriers",,47.20487008,-1.60530667,,,1,,
LAXX,"La Croix",,47.16527571,-1.48670499,,,1,,
LBAU,"Les Bauches",,47.26327649,-1.67722597,,,1,,
LBER,"Lindbergh",,47.15458912,-1.59804107,,,1,,
LBOS,"La Brosse",,47.33298939,-1.56959138,,,1,,
LBPI,"L'Ebaupin",,47.17161474,-1.51000653,,,1,,
LCAR,"Le Cardo",,47.26160277,-1.58448475,,,1,,
LCBU,"Le Corbusier",,47.19017524,-1.56868209,,,1,,
LCEE,"La Carrée",,47.16849749,-1.54385650,,,1,,
LCLE,"La Coulée",,47.26013301,-1.57471905,,,1,,
LCNE,"Le Chêne",,47.16526021,-1.48445890,,,1,,
LCOG,"La Cogne",,47.28683964,-1.55734888,,,1,,
LCSE,"La Close",,47.24083446,-1.57277848,,,1,,
LCTE,"La Côte",,47.28213726,-1.56057971,,,1,,
LDAS,"Landas",,47.16933769,-1.51076745,,,1,,
LDRE,"Landreau",,47.23211110,-1.51620851,,,1,,
LDSS,"Landas",,47.17436501,-1.55947162,,,1,,
LECH,"Lechat",,47.20353220,-1.58115476,,,1,,
LEGU,"Leygues",,47.20323969,-1.54188245,,,1,,
LEVO,"Levoyer",,47.19387396,-1.58176916,,,1,,
LFAU,"Les Faulx",,47.15741367,-1.52258688,,,1,,
LFER,"La Ferme",,47.26424888,-1.68034232,,,1,,
LFLE,"Laurier Fleuri",,47.18834076,-1.48372835,,,1,,
LFOR,"La Forêt",,47.14947537,-1.63938699,,,1,,
LFVR,"Lefeuvre",,47.26686052,-1.49502977,,,1,,
LGAR,"La Garde",,47.25576216,-1.50918227,,,1,,
LGOF,"Le Goffic",,47.22999305,-1.56312702,,,1,,
LGRI,"La Grille",,47.25099185,-1.48198826,,,1,,
LGTH,"Lagathu",,47.18036290,-1.53652635,,,1,,
LHAC,"La Hache",,47.26231761,-1.49893768,,,1,,
LHER,"La Herdrie",,47.19778397,-1.45414308,,,1,,
LHIE,"La Haie",,47.29013176,-1.54249845,,,1,,
LHLE,"Le Halleray",,47.26984144,-1.45660738,,,1,,
LHOU,"La Houssais",,47.17428702,-1.55378624,,,1,,
LHPI,"L'Hopitau",,47.27226101,-1.55165518,,,1,,
LIBE,"Libération",,47.17728552,-1.67896934,,,1,,
LILA,"Lilas",,47.13776565,-1.46890324,,,1,,
LION,"Lionnière",,47.21866696,-1.69595730,,,1,,
LIPP,"Lippmann",,47.23834028,-1.52115348,,,1,,
LITT,"Littré",,47.21780852,-1.58246463,,,1,,
LJOS,"Léon Jost",,47.23629112,-1.56332179,,,1,,
LLGR,"Léo Lagrange",,47.29699568,-1.55530903,,,1,,
LLIO,"Les Lions",,47.24982601,-1.61549961,,,1,,
LLMO,"Le Clémois",,47.13738336,-1.72257729,,,1,,
LLOR,"La Lorie",,47.23524557,-1.65700442,,,1,,
LMAR,"La Marche",,47.18067739,-1.65914283,,,1,,
LMBR,"Lambert",,47.17089014,-1.53967137,,,1,,
LMEE,"La martinière",,47.20633168,-1.78491058,,,1,,
LMIC,"Louise Michel",,47.21936503,-1.61338144,,,1,,
LMNE,"Lemoine",,47.23547339,-1.54752596,,,1,,
LMRI,"Lamoricière",,47.21445630,-1.57243725,,,1,,
LMTA,"La Montagne",,47.18845833,-1.68918890,,,1,,
LNAI,"Le Nain",,47.22654547,-1.60095420,,,1,,
LNOU,"La Noue",,47.14038786,-1.60769065,,,1,,
LNTT,"Linot",,47.26537241,-1.52614758,,,1,,
LOIR,"Loire",,47.24849839,-1.48657166,,,1,,
LOMB,"Lombarderie",,47.23349494,-1.55544842,,,1,,
LONG,"Longchamp",,47.23484287,-1.58212605,,,1,,
LPBA,"Bac du Pellerin",,47.20289715,-1.75490668,,,1,,
LPEL,"Le Pellerin",,47.20066234,-1.75949387,,,1,,
LPLE,"La Plée",,47.19318013,-1.46266938,,,1,,
LPME,"La Plume",,47.19492160,-1.50520704,,,1,,
LRAY,"Le Gray 1",,47.28422067,-1.58680640,,,1,,
LRCH,"La Roche",,47.21651614,-1.51931543,,,1,,
LRHE,"Les Roches",,47.26373177,-1.58014242,,,1,,
LRNE,"Lourneau",,47.19952631,-1.48862323,,,1,,
LRYA,"Le Gray 2",,47.28331767,-1.58422529,,,1,,
LSAL,"La Salle",,47.21431111,-1.68915135,,,1,,
LSLL,"Les Salles",,47.25036017,-1.53604154,,,1,,
LSOU,"La Source",,47.30567326,-1.55170423,,,1,,
LSYY,"Léon Say",,47.22960347,-1.56931311,,,1,,
LTOU,"Le Tour",,47.15160805,-1.68945617,,,1,,
LUNI,"Lieu Unique",,47.21561738,-1.54608443,,,1,,
LYBR,"Lycée Brottier",,47.16066510,-1.67772311,,,1,,
LYCQ,"Lycée de Carquefou",,47.27939100,-1.49195803,,,1,,
LYOR,"Lycée d'Orbigny",,47.15427060,-1.68028093,,,1,,
LYPE,"Lycée Appert",,47.25177199,-1.61127815,,,1,,
LYRI,"Lycée Rieffel",,47.25547237,-1.64250784,,,1,,
LZCA,"Lusançay",,47.20267876,-1.58241386,,,1,,
MAAR,"Maillardière",,47.27403732,-1.63436175,,,1,,
MACH,"MIN",,47.20166722,-1.55379440,,,1,,
MADO,"Mandon",,47.16048962,-1.47078194,,,1,,
MAGA,"Mauves-Gare",,47.29318500,-1.38969773,,,1,,
MAI8,"8 Mai",,47.18924083,-1.55104153,,,1,,
MALL,"Mail",,47.26905770,-1.61149640,,,1,,
MAMT,"8 Mai",,47.17930794,-1.67779995,,,1,,
MARR,"Maison d'Arrêt",,47.26640432,-1.50333251,,,1,,
MASS,"Massigné",,47.29887798,-1.57954203,,,1,,
MATI,"Matière",,47.27639977,-1.44886845,,,1,,
MAUC,"Centre De Mauves",,47.29677512,-1.39286040,,,1,,
MAZE,"Mazères",,47.31362172,-1.35060463,,,1,,
MBCH,"Maison Blanche",,47.22164405,-1.60469183,,,1,,
MBLA,"Mont Blanc",,47.17674040,-1.55581380,,,1,,
MBOU,"Mairie de Bouguenais",,47.17901016,-1.61872647,,,1,,
MBRU,"Moulin Brûlé",,47.25937885,-1.65457368,,,1,,
MBSE,"Moulin Boisseau",,47.28838631,-1.48413143,,,1,,
MCAS,"Moulin Cassé",,47.25666109,-1.46850352,,,1,,
MCCO,"Marché Commun",,47.25967252,-1.49993852,,,1,,
MCHA,"Mairie de Chantenay",,47.20636707,-1.58783853,,,1,,
MCOU,"Mairie de Couëron",,47.21225494,-1.72720030,,,1,,
MCUR,"Madame Curie",,47.18912957,-1.55433651,,,1,,
MDAR,"Maison des Arts",,47.21111642,-1.61753102,,,1,,
MDEL,"Mandel",,47.20259073,-1.53707786,,,1,,
MDLA,"Moulin des Landes",,47.26208697,-1.48145788,,,1,,
MDNE,"Madeleine",,47.27579884,-1.48349616,,,1,,
MDOU,"Mairie de Doulon",,47.22680291,-1.51873485,,,1,,
MDPO,"Moulin de Porterie",,47.27583508,-1.51221479,,,1,,
MDRE,"Madoire",,47.26508756,-1.63793097,,,1,,
MDSI,"Mondésir",,47.21791469,-1.56872410,,,1,,
MDTH,"Médiathèque",,47.21105350,-1.56121790,,,1,,
MEDI,"Méditerranée",,47.27106552,-1.48501031,,,1,,
MELI,"Méliès",,47.18149783,-1.55629181,,,1,,
META,"Métairie",,47.21380863,-1.69836721,,,1,,
MGAL,"Marie Galante",,47.26417032,-1.45104526,,,1,,
MGCH,"Monge - Chauvinière",,47.25283697,-1.56942314,,,1,,
MGDR,"Mongendrière",,47.29233716,-1.55457252,,,1,,
MGEL,"Margelle",,47.27271181,-1.59416606,,,1,,
MGIN,"Mangin",,47.20160574,-1.54493569,,,1,,
MGLI,"Magnoliers",,47.22620349,-1.60568888,,,1,,
MGNO,"Mignonnerie",,47.24253292,-1.48178096,,,1,,
MGUA,"Mainguais",,47.28266468,-1.48557518,,,1,,
MHDI,"Mahaudières",,47.18892461,-1.56039923,,,1,,
MHUI,"Moulin à l'Huile",,47.17661629,-1.56214520,,,1,,
MIAI,"Minais",,47.25709013,-1.46641753,,,1,,
MICH,"Michelet",,47.23451072,-1.55737362,,,1,,
MIMO,"Mimosas",,47.24132529,-1.58749450,,,1,,
MIND,"Mairie d'Indre",,47.20071585,-1.66830435,,,1,,
MITR,"Mitrie",,47.22775459,-1.52528198,,,1,,
MKSU,"Malakoff",,47.21609496,-1.52113569,,,1,,
MLAN,"Magellan",,47.18816871,-1.46442750,,,1,,
MLCH,"Morlachère",,47.16204305,-1.48370116,,,1,,
MLDR,"Maladrie",,47.18828419,-1.49627525,,,1,,
MLHE,"Moulin Hérel",,47.21943384,-1.63757971,,,1,,
MLIN,"Moulin",,47.18888850,-1.50517039,,,1,,
MLLI,"Mellinet",,47.21174818,-1.57792313,,,1,,
MLNE,"Moulinets",,47.20990457,-1.62920545,,,1,,
MLON,"Mulonnière",,47.26556269,-1.54997711,,,1,,
MLRA,"Malraux",,47.25430780,-1.51767585,,,1,,
MMSS,"Mermoz",,47.19880996,-1.51552901,,,1,,
MNEF,"Moulin Neuf",,47.22985168,-1.51644242,,,1,,
MNFA,"Manufacture",,47.21869109,-1.53771487,,,1,,
MNIE,"Moulinier",,47.13523845,-1.66552211,,,1,,
MNOT,"Minoterie",,47.21686600,-1.72160133,,,1,,
MNSS,"Malnoue",,47.20265743,-1.50549809,,,1,,
MNTR,"Ménétrier",,47.24122134,-1.52387404,,,1,,
MNVE,"Maison Neuve",,47.27453400,-1.46726186,,,1,,
MOCT,"Moulin Collet",,47.20032859,-1.76634105,,,1,,
MOET,"Mouettes",,47.21046153,-1.74226599,,,1,,
MOIN,"Moinard",,47.21353271,-1.72928032,,,1,,
MONE,"Moinet",,47.26469759,-1.49236094,,,1,,
MORH,"Morrhonnière - Petit Port",,47.24157211,-1.55630080,,,1,,
MOTE,"Motte Rouge",,47.22879100,-1.55338727,,,1,,
MOUT,"Moutonnerie",,47.21955608,-1.53341505,,,1,,
MOVA,"Mairie d'Orvault",,47.27136840,-1.62291523,,,1,,
MOZI,"Monzie",,47.20339609,-1.53991144,,,1,,
MPAU,"Marcel Paul",,47.24576505,-1.61572851,,,1,,
MPER,"Millepertuis",,47.22203672,-1.67942003,,,1,,
MPMN,"Melpomène",,47.27694960,-1.50038487,,,1,,
MPTA,"Maison Poitard",,47.14700488,-1.64831344,,,1,,
MQDI,"Marquis de Dion",,47.29709079,-1.48779883,,,1,,
MQLI,"Mocquelière",,47.23313228,-1.61902651,,,1,,
MRAI,"Maraîchers",,47.18465612,-1.51054729,,,1,,
MRDI,"Maison Radieuse",,47.18791072,-1.56640295,,,1,,
MREZ,"Mairie de Rezé",,47.19130302,-1.56995354,,,1,,
MRGE,"Morges",,47.16495172,-1.47202356,,,1,,
MRIE,"Maurienne",,47.27561915,-1.44246145,,,1,,
MROT,"Moulin Rothard",,47.19590819,-1.74115678,,,1,,
MRRI,"Marrière",,47.23759212,-1.52466998,,,1,,
MRTE,"Marterie",,47.17846469,-1.53136943,,,1,,
MRZE,"Marzilles",,47.18274936,-1.47579961,,,1,,
MSHE,"Mairie de St-Herblain",,47.21102816,-1.64885191,,,1,,
MSLL,"Marseillaise",,47.20734188,-1.59094994,,,1,,
MSOR,"Mairie des Sorinières",,47.14916207,-1.53229012,,,1,,
MSSI,"Mississipi",,47.23716387,-1.60914177,,,1,,
MTEI,"Monteil",,47.21396999,-1.54953382,,,1,,
MTLI,"Martellière",,47.19916680,-1.52639054,,,1,,
MTRA,"Mortrais",,47.12800978,-1.61667784,,,1,,
MTYY,"Monty",,47.27421430,-1.43309950,,,1,,
MULI,"Mouline",,47.32355207,-1.55300628,,,1,,
MVAN,"Mortier Vannerie",,47.18016469,-1.49939264,,,1,,
MVRD,"Monteverdi",,47.26657684,-1.44632051,,,1,,
MVSI,"Mauvoisins",,47.19001113,-1.52546555,,,1,,
MZUR,"Mazure",,47.25796702,-1.48076677,,,1,,
NATL,"Nantes-Atlantique",,47.15781429,-1.60118309,,,1,,
NBEL,"Nouveau Bêle",,47.26879307,-1.50191635,,,1,,
NBLA,"Noé Blanche",,47.25739514,-1.50612485,,,1,,
NCTE,"Noé Cottée",,47.19409498,-1.47858966,,,1,,
NDRE,"Naudières",,47.17315290,-1.53666522,,,1,,
NETR,"Neustrie",,47.17591416,-1.59339984,,,1,,
NIAG,"Niagara",,47.30600333,-1.49333602,,,1,,
NILL,"Nil",,47.24187178,-1.60843110,,,1,,
NIZA,"Nizan",,47.20574949,-1.55025846,,,1,,
NLBR,"Noë Lambert",,47.23007878,-1.52849088,,,1,,
NLLA,"Noë Allais",,47.22036251,-1.68868129,,,1,,
NOAH,"Noë St Jean",,47.21918582,-1.73499847,,,1,,
NOHH,"North'House",,47.19577781,-1.57345153,,,1,,
NONO,"Noë Nozou 1",,47.13027621,-1.63717053,,,1,,
NOSH,"Noëlles",,47.24030012,-1.60434756,,,1,,
NOZO,"Noë Nozou 2",,47.13210719,-1.64152997,,,1,,
NRCA,"Noë Rocard",,47.16334300,-1.49066067,,,1,,
NRDA,"Neruda",,47.21772527,-1.61392135,,,1,,
NVER,"Noue Verrière",,47.27601666,-1.57111741,,,1,,
OBLA,"Ouche Blanche",,47.17952322,-1.56407418,,,1,,
OCAN,"Océane",,47.22759682,-1.63593842,,,1,,
OCEA,"Couëron Océan",,47.21345289,-1.73918909,,,1,,
OCOR,"Ouche Cormier",,47.26466582,-1.62400648,,,1,,
ODLA,"Ouche des landes",,47.19503341,-1.48288475,,,1,,
ODNE,"Ordronneau",,47.19383736,-1.57489540,,,1,,
OGVA,"Orvault-Grand Val",,47.26297286,-1.59450834,,,1,,
OLIV,"Olivier",,47.21747321,-1.72482036,,,1,,
OLVE,"Oliveraie",,47.18855867,-1.53117399,,,1,,
OLYM,"Olympe de Gouges",,47.30897242,-1.54466143,,,1,,
OMRL,"Orvault - Morlière",,47.24671050,-1.60389416,,,1,,
ONCH,"Onchère",,47.20276230,-1.46704982,,,1,,
OQNE,"Ouche Quinet",,47.19602177,-1.50462533,,,1,,
ORNG,"La Chapelle Aulnay",,47.30840013,-1.54025010,,,1,,
ORVA,"Orvault",,47.27869769,-1.64026681,,,1,,
OSAN,"Ouessant",,47.27007669,-1.44670053,,,1,,
OTAG,"50 Otages",,47.21970848,-1.55563519,,,1,,
PABO,"Paix",,47.18243245,-1.59242516,,,1,,
PACQ,"Parc",,47.27235400,-1.48417618,,,1,,
PAEB,"Pablée",,47.21539195,-1.74039445,,,1,,
PAJO,"Petit Anjou",,47.20574746,-1.50466267,,,1,,
PALL,"Pont Allard",,47.19655292,-1.66627488,,,1,,
PAMI,"Palmiers",,47.19011839,-1.53300429,,,1,,
PAON,"Papillons",,47.14680985,-1.51918269,,,1,,
PAPO,"Parc Potager",,47.23595128,-1.52256798,,,1,,
PATR,"Pâtis Rondin",,47.24776219,-1.51680722,,,1,,
PB1B,"Parc de la Bouvre 1",,47.17584425,-1.61386926,,,1,,
PBAI,"Parc Bel Air",,47.17855251,-1.47470823,,,1,,
PBFF,"Paimboeuf",,47.17656629,-1.61907431,,,1,,
PBLE,"Pâtis Brûlé",,47.19926705,-1.50723684,,,1,,
PBOT,"Poulbot",,47.21329698,-1.64835997,,,1,,
PBRE,"Petit Breton",,47.21323965,-1.60023932,,,1,,
PBUY,"Pé de Buzay",,47.20250065,-1.81633789,,,1,,
PBYE,"Port Boyer",,47.24117489,-1.53868259,,,1,,
PCAC,"Petit Carcouët",,47.22819914,-1.58679594,,,1,,
PCBI,"Picabia",,47.25456749,-1.57682529,,,1,,
PCDI,"Picaudière",,47.28041848,-1.48541452,,,1,,
PCEN,"Place Centrale",,47.26228759,-1.67199149,,,1,,
PCHA,"Portechaise",,47.20061763,-1.52609882,,,1,,
PCLO,"Petit Clos",,47.20530198,-1.50991704,,,1,,
PCNN,"Planchonnais",,47.25337524,-1.47528020,,,1,,
PCPE,"Porte de La Chapelle",,47.25937031,-1.55733234,,,1,,
PCRE,"Poincaré",,47.22275905,-1.58520707,,,1,,
PCSI,"Petite Censive",,47.26129915,-1.56422022,,,1,,
PCTI,"Petit Chantilly",,47.25456313,-1.60076891,,,1,,
PCVO,"Pontecorvo",,47.24614942,-1.53269455,,,1,,
PCZI,"Pont de Chézine",,47.23815563,-1.61437263,,,1,,
PDAN,"Pas d'Ane",,47.18204264,-1.46993696,,,1,,
PDCE,"Pont du Cens",,47.24860646,-1.57731488,,,1,,
PDEA,"Porteurs d'Eau",,47.27151222,-1.59765073,,,1,,
PDOU,"Porte Douillard",,47.28973819,-1.51930528,,,1,,
PDPI,"Pomme de Pin",,47.26708762,-1.59534026,,,1,,
PDUC,"Prairie au Duc 1",,47.20427999,-1.56442501,,,1,,
PEDR,"Perdriaux",,47.16125865,-1.48562593,,,1,,
PEGE,"Pégers",,47.13758868,-1.47153044,,,1,,
PELO,"Pelousière",,47.20775876,-1.64702227,,,1,,
PEON,"Perron",,47.22489675,-1.60175834,,,1,,
PERR,"Perray",,47.24758080,-1.51414888,,,1,,
PETR,"Pétrels",,47.25430074,-1.50709295,,,1,,
PFNA,"Purfina",,47.19457500,-1.63494095,,,1,,
PGRI,"Pagerie",,47.17872222,-1.65318427,,,1,,
PGTI,"Plinguetière",,47.13297896,-1.61361274,,,1,,
PHTR,"Parc Chantrerie",,47.28679692,-1.52107843,,,1,,
PHVE,"Pré Hervé",,47.24280736,-1.51684693,,,1,,
PIAO,"Piano'cktail",,47.17483933,-1.60639797,,,1,,
PIBL,"Pierre Blanche",,47.17205368,-1.62719445,,,1,,
PICA,"Picasso",,47.21502510,-1.53692066,,,1,,
PIEA,"Pierre Abélard",,47.15511168,-1.68456959,,,1,,
PIPA,"Pipay",,47.22583332,-1.53691006,,,1,,
PIRM,"Pirmil",,47.19609738,-1.54268626,,,1,,
PISE,"Pin Sec",,47.24340102,-1.51794774,,,1,,
PJOU,"Point du Jour",,47.26495189,-1.44369179,,,1,,
PLAC,"Placis",,47.19964834,-1.52008230,,,1,,
PLBL,"Port la Blanche",,47.27172761,-1.51655030,,,1,,
PLCL,"Polyclinique",,47.22798140,-1.61163773,,,1,,
PLES,"Plessis",,47.30097024,-1.55228866,,,1,,
PLGU,"Pouliguen",,47.23949666,-1.54305732,,,1,,
PLNA,"Port launay",,47.20968794,-1.74630488,,,1,,
PLOR,"Ploreau",,47.30314874,-1.55178525,,,1,,
PLPC,"Place des Pêcheurs",,47.13648071,-1.66865096,,,1,,
PLSS,"Plessis",,47.26035939,-1.66007149,,,1,,
PLTI,"Platière",,47.19457601,-1.56107499,,,1,,
PMAR,"Pont Marchand",,47.26062490,-1.63151308,,,1,,
PMEU,"Port aux Meules",,47.16542495,-1.49305446,,,1,,
PMTR,"Pont de la Métairie",,47.26243505,-1.44629199,,,1,,
PMVE,"Prairie de Mauves",,47.22003180,-1.51652833,,,1,,
PNLU,"Pinier",,47.25271209,-1.48171431,,,1,,
PNPI,"Pont Pilet",,47.33947182,-1.57231822,,,1,,
PNRZ,"Pinier",,47.18159748,-1.54533445,,,1,,
PNTI,"Plantiveau",,47.24649647,-1.51155784,,,1,,
POIT,"Poitou",,47.22406831,-1.56520707,,,1,,
POLE,"Poulenc",,47.25540792,-1.58125232,,,1,,
POMM,"Pommeraie",,47.14625206,-1.69578708,,,1,,
PONT,"Ponterau",,47.30641291,-1.37883711,,,1,,
POON,"Potiron",,47.27077181,-1.51820156,,,1,,
POST,"Poste",,47.29523442,-1.55412164,,,1,,
POTT,"Pottier",,47.17763302,-1.62734333,,,1,,
POYA,"Poyaux",,47.16658699,-1.53103977,,,1,,
PPDO,"Pompidou",,47.20918997,-1.52830369,,,1,,
PPFA,"Petit Port",,47.24370167,-1.55724939,,,1,,
PPLI,"Peupliers",,47.19956367,-1.49562949,,,1,,
PPOU,"Pré Poulain",,47.27248637,-1.44462168,,,1,,
PPSI,"Petit Plessis",,47.30185314,-1.38619840,,,1,,
PPTR,"Papotière",,47.24014265,-1.49681824,,,1,,
PPUN,"Petit Port-Facultés",,47.24313250,-1.54742102,,,1,,
PRCE,"Procé",,47.22260614,-1.58175846,,,1,,
PRDI,"Praudière",,47.25685006,-1.58387156,,,1,,
PREU,"Preux",,47.22119804,-1.61245913,,,1,,
PRFO,"Profondine",,47.19610763,-1.48851103,,,1,,
PRGE,"Portail Rouge",,47.24392676,-1.50489247,,,1,,
PRHE,"Petit Rocher",,47.24055373,-1.47899478,,,1,,
PRIM,"Primevères",,47.22487620,-1.67288995,,,1,,
PRMI,"Pyramide",,47.20803366,-1.49279982,,,1,,
PRNE,"Perrines",,47.22763193,-1.51548924,,,1,,
PROU,"Pont Rousseau Martyrs",,47.19242012,-1.54757281,,,1,,
PRRI,"Perrières",,47.30944224,-1.55211106,,,1,,
PRSS,"Pressoir",,47.12364032,-1.63892195,,,1,,
PRTE,"Portereau",,47.16828894,-1.50171153,,,1,,
PRUT,"Proutière",,47.19811859,-1.78031310,,,1,,
PRZE,"Porte de Rezé",,47.15716224,-1.54079053,,,1,,
PSAU,"Porte de Sautron",,47.25079554,-1.61874600,,,1,,
PSCE,"Plaisance",,47.24012139,-1.59110919,,,1,,
PSEV,"Parc de la Sèvre",,47.16444225,-1.47925036,,,1,,
PSIN,"Pasteur",,47.20098683,-1.67863326,,,1,,
PSME,"Place St Méen",,47.31913107,-1.34727709,,,1,,
PSOR,"Prières",,47.15008877,-1.52615191,,,1,,
PSPO,"Parc des Sports",,47.25996468,-1.45021813,,,1,,
PSUD,"Pôle Sud",,47.18880328,-1.46975714,,,1,,
PTBO,"Petit Bois",,47.18541245,-1.67838988,,,1,,
PTCH,"Patache",,47.27121209,-1.61959538,,,1,,
PTEC,"Polytech'",,47.28073259,-1.51389100,,,1,,
PTGO,"Poitou",,47.20980829,-1.46913668,,,1,,
PTIS,"Plessis Tison",,47.23657256,-1.53358852,,,1,,
PTLA,"CES Petite Lande",,47.17794233,-1.54956064,,,1,,
PTNE,"Platanes",,47.24532337,-1.52509601,,,1,,
PTON,"Portillon",,47.14928857,-1.46906172,,,1,,
PTPS,"Printemps",,47.18859741,-1.50039329,,,1,,
PTQQ,"Portricq",,47.26508661,-1.52123154,,,1,,
PTRE,"Portereau",,47.19211569,-1.47580611,,,1,,
PTRI,"Patouillerie",,47.24523319,-1.58116812,,,1,,
PTUR,"Pâtures",,47.30452472,-1.55638729,,,1,,
PTVI,"Pâtis Viaud",,47.13867871,-1.45761689,,,1,,
PTYY,"Planty",,47.17526907,-1.49494731,,,1,,
PUCH,"Pluchets",,47.21858103,-1.65443833,,,1,,
PVIL,"Petit Village",,47.21700643,-1.65048707,,,1,,
PVLO,"Pavillon",,47.14358417,-1.67934761,,,1,,
PVTO,"Porte de Vertou",,47.18112627,-1.50567017,,,1,,
PXCE,"Port aux Cerises",,47.31187743,-1.54129709,,,1,,
QANT,"Quai des Antilles",,47.20374641,-1.56954034,,,1,,
QBNA,"Quai Brunais",,47.19643837,-1.66957006,,,1,,
QSCO,"Quai Surcouf",,47.19490237,-1.57801242,,,1,,
QTNE,"Quintaine",,47.21669222,-1.46248846,,,1,,
RABI,"Rabine",,47.26138358,-1.64347712,,,1,,
RAGO,"Ragon",,47.16511879,-1.54255518,,,1,,
RAVA,"Ravardière",,47.18379560,-1.66532092,,,1,,
RAZA,"Ranzay",,47.25316939,-1.53016020,,,1,,
RBAL,"Roche Ballue",,47.17953387,-1.65575479,,,1,,
RBHI,"René Bouhier",,47.20986483,-1.56972265,,,1,,
RBNI,"Robinière",,47.16373212,-1.53558769,,,1,,
RBRN,"René Bernier",,47.19394244,-1.49945517,,,1,,
RCAS,"René Cassin",,47.26475083,-1.57399847,,,1,,
RCER,"Rocher",,47.21324277,-1.63949923,,,1,,
RCPE,"Route de la Chapelle",,47.25485941,-1.57618523,,,1,,
RCUU,"Rochu",,47.21510573,-1.66634106,,,1,,
RDFY,"Raoul Dufy",,47.22271825,-1.59961481,,,1,,
RDGO,"Radigois",,47.19324983,-1.51750718,,,1,,
RDIE,"Rouaudière",,47.29420653,-1.58449495,,,1,,
RDMV,"Rue de Mauves",,47.27152739,-1.43264535,,,1,,
RDNT,"Rue de Nantes",,47.15107676,-1.53427678,,,1,,
REDR,"Redras",,47.16474964,-1.50251433,,,1,,
REFR,"Réfractaires",,47.30275197,-1.54751948,,,1,,
RETA,"Retas",,47.15485606,-1.53705860,,,1,,
REYN,"Reynière",,47.25612645,-1.57865918,,,1,,
RGNI,"Reigniers",,47.13722374,-1.46622500,,,1,,
RIND,"Rue d'Indre",,47.20419106,-1.66420287,,,1,,
RLEA,"Rouleaux",,47.20009287,-1.46606724,,,1,,
RLON,"Rennes - Longchamp",,47.23865543,-1.57063549,,,1,,
RMAU,"Roche Maurice",,47.19631886,-1.61828778,,,1,,
RMNE,"Romanet",,47.21186391,-1.60886215,,,1,,
RNAN,"Renan",,47.21631491,-1.61302404,,,1,,
RNDR,"Renardières",,47.14969671,-1.60151056,,,1,,
RNIE,"Rinière",,47.12905932,-1.63589246,,,1,,
RNLT,"Renault",,47.26341561,-1.49570894,,,1,,
RNRE,"Renaudières",,47.29948308,-1.50796107,,,1,,
RNTI,"Reinetière",,47.25688956,-1.49153714,,,1,,
ROCA,"Rocade",,47.16334141,-1.47441804,,,1,,
ROET,"Rouet",,47.14826668,-1.52139985,,,1,,
RPAR,"Rond-Point de Paris",,47.23404038,-1.53657884,,,1,,
RPBL,"République",,47.20521654,-1.55537406,,,1,,
RPCH,"Repos de Chasse",,47.21655958,-1.59797194,,,1,,
RPSI,"Ripossière",,47.19221273,-1.53500550,,,1,,
RQIO,"Trentemoult Roquios",,47.19547324,-1.58241481,,,1,,
RREN,"Rond-Point de Rennes",,47.23322804,-1.56600754,,,1,,
RROL,"Romain Rolland",,47.20677852,-1.61007323,,,1,,
RSCO,"Robert Scott",,47.18690928,-1.45892159,,,1,,
RSLI,"Rousselière",,47.17565873,-1.51835430,,,1,,
RSNB,"Rosenberg",,47.23568862,-1.65981468,,,1,,
RSRA,"Roseraie",,47.26061641,-1.52831754,,,1,,
RTSC,"Recteur Schmitt",,47.25312492,-1.55290905,,,1,,
RUET,"Ruette",,47.23335669,-1.51127357,,,1,,
RVAN,"Rond-Point de Vannes",,47.22956812,-1.57301279,,,1,,
RVDI,"Rivaudière",,47.22710048,-1.65031394,,,1,,
RVER,"Roches Vertes",,47.18490744,-1.52456891,,,1,,
RZEE,"Razée",,47.21495313,-1.46606598,,,1,,
SADU,"Santos Dumont",,47.25941297,-1.56672852,,,1,,
SAGL,"St-Aignan de Grand Lieu",,47.12316599,-1.63439989,,,1,,
SAIG,"St-Aignan",,47.20803766,-1.57844471,,,1,,
SALE,"Salentine",,47.24856478,-1.61024769,,,1,,
SAOR,"Sables d'Or",,47.26509240,-1.45587347,,,1,,
SAPI,"Saupin",,47.18480285,-1.47634217,,,1,,
SATR,"Sautron",,47.26538705,-1.68386822,,,1,,
SAVA,"Savarières",,47.20857489,-1.49006308,,,1,,
SBAI,"St-Blaise",,47.16720837,-1.46914664,,,1,,
SBLL,"Sébilleau",,47.20484325,-1.53169021,,,1,,
SBSA,"St-Jean-Baptiste de la Salle",,47.23342883,-1.56007173,,,1,,
SCHW,"Schweitzer",,47.29486448,-1.49518502,,,1,,
SCLE,"St-Clément",,47.22188441,-1.54720031,,,1,,
SDAV,"Square Davais",,47.21154662,-1.55728847,,,1,,
SDON,"St-Donatien",,47.22894363,-1.54083745,,,1,,
SECH,"Schoelcher",,47.22065473,-1.62828372,,,1,,
SEIL,"Seil",,47.19424557,-1.57082900,,,1,,
SERC,"Sercel",,47.26686483,-1.48947308,,,1,,
SEVR,"Sèvres",,47.18667934,-1.52813168,,,1,,
SFEL,"St-Félix",,47.23120872,-1.55647209,,,1,,
SFRA,"San-Francisco",,47.21751606,-1.51634714,,,1,,
SGRA,"Sageran",,47.21954128,-1.57122242,,,1,,
SHMD,"St-Hermeland",,47.14426175,-1.69603334,,,1,,
SILL,"Sillon de Bretagne",,47.24555982,-1.60857095,,,1,,
SINI,"Sinière",,47.22569458,-1.67784354,,,1,,
SJAC,"St-Jacques 2",,47.19616724,-1.53793433,,,1,,
SJBO,"St-Jean-de-Boiseau",,47.19585207,-1.72489753,,,1,,
SJEA,"St-Jean",,47.19178452,-1.52361161,,,1,,
SJPO,"St-Joseph de Porterie",,47.26784216,-1.51693176,,,1,,
SLAU,"St-Laurent",,47.22357637,-1.59822363,,,1,,
SLCE,"Ste-Luce",,47.25034785,-1.48511670,,,1,,
SLDA,"Solidarité",,47.21718879,-1.58744262,,,1,,
SLGE,"Salorges",,47.20473102,-1.57503087,,,1,,
SLVI,"St-Léger-les-Vignes",,47.13657004,-1.73030412,,,1,,
SMAR,"St-Martin",,47.21344493,-1.69331638,,,1,,
SMHI,"St-Mihiel",,47.22356660,-1.55340397,,,1,,
SMIC,"St-Michel",,47.22414752,-1.64454074,,,1,,
SNIC,"St-Nicolas",,47.21558147,-1.56049028,,,1,,
SNTA,"Sanitat",,47.21037662,-1.56790955,,,1,,
SNUC,"Stade SNUC",,47.22794281,-1.58109165,,,1,,
SOCH,"Souchais",,47.30774759,-1.48962120,,,1,,
SOEC,"Souchais École",,47.30367598,-1.49833277,,,1,,
SORI,"Sorin",,47.19533667,-1.56786946,,,1,,
SOUI,"Souillarderie",,47.23815293,-1.51598259,,,1,,
SOWE,"Soweto",,47.23327207,-1.65156746,,,1,,
SPHI,"Saphirs",,47.20494966,-1.65791541,,,1,,
SPIN,"Saupin",,47.21327811,-1.53798381,,,1,,
SPRU,"Sully Prudhomme",,47.23623994,-1.59664277,,,1,,
SPSA,"St-Paul -Salengro",,47.18436498,-1.54606358,,,1,,
SRDI,"Sarradin",,47.22056982,-1.57010774,,,1,,
SRNI,"Les Sorinières",,47.15918543,-1.51809294,,,1,,
SRTR,"Sartre",,47.21420827,-1.64023194,,,1,,
SSEB,"St-Sébastien-sur-Loire",,47.20751172,-1.50307119,,,1,,
SSTA,"St-Stanislas",,47.22220189,-1.55647763,,,1,,
STBS,"Stade",,47.19131565,-1.70790343,,,1,,
STHR,"Alexandre Vincent-Ste-Thérèse",,47.23266376,-1.57733827,,,1,,
STPI,"St-Pierre",,47.21813049,-1.55168676,,,1,,
STXU,"St-Exupéry",,47.15289572,-1.59487984,,,1,,
SUCO,"Surcouf",,47.26884475,-1.44581947,,,1,,
SVAU,"Savaudière",,47.28925918,-1.51477024,,,1,,
SVDI,"Solvardière",,47.21810211,-1.64224002,,,1,,
SVIN,"Stévin",,47.26005760,-1.63491088,,,1,,
SVNN,"Savonnières",,47.19757493,-1.66278320,,,1,,
SYRM,"Syrma",,47.27713368,-1.47035823,,,1,,
TADI,"Taillandier",,47.21434260,-1.71651857,,,1,,
TAID,"Toutes Aides",,47.22646431,-1.52347007,,,1,,
TBAU,"Thébaudières",,47.31056591,-1.35886767,,,1,,
TBCH,"Trébuchet",,47.21977697,-1.54559314,,,1,,
TBER,"Tristan Bernard",,47.20580571,-1.46488733,,,1,,
TBIL,"Tbilissi",,47.21383608,-1.54013913,,,1,,
TBLY,"Tabarly",,47.19552476,-1.54898736,,,1,,
TCHE,"Trois Chênes",,47.25818959,-1.47403605,,,1,,
TDGA,"Tredégar",,47.25469292,-1.60487941,,,1,,
TEBS,"Tertre",,47.19668985,-1.74452027,,,1,,
TEIF,"Tour Eiffel",,47.19958731,-1.75425712,,,1,,
TENA,"Tertre",,47.21476597,-1.60828303,,,1,,
TERR,"Terray",,47.25182472,-1.52728517,,,1,,
THAT,"Théatre",,47.21571204,-1.72878494,,,1,,
THCE,"Centre de Thouaré-sur-Loire",,47.26655287,-1.44155584,,,1,,
THEB,"Thébaudières",,47.24446859,-1.60624195,,,1,,
TILL,"Tillay",,47.22879540,-1.60627659,,,1,,
TJOI,"Toutes Joies",,47.22119467,-1.57292964,,,1,,
TLDI,"Télindière",,47.19614258,-1.73707782,,,1,,
TLSA,"Talensac",,47.22149648,-1.55602969,,,1,,
TMET,"Trois Métairies",,47.17639742,-1.50163238,,,1,,
TMLI,"Tourmaline",,47.22148411,-1.63297250,,,1,,
TMOU,"Trois Moulins",,47.17847503,-1.54444757,,,1,,
TMSS,"Trémissinière",,47.23819442,-1.54428528,,,1,,
TNVA,"Terre Neuvas",,47.18589150,-1.59135787,,,1,,
TOSC,"Toscane",,47.28327006,-1.54835331,,,1,,
TOTR,"Tortière",,47.23522257,-1.54962352,,,1,,
TOUG,"Tougas",,47.19414178,-1.63966591,,,1,,
TPCH,"Terpsichore",,47.28222424,-1.50155772,,,1,,
TPOD,"Tripode",,47.20814468,-1.54065196,,,1,,
TRCA,"Tréca",,47.25016823,-1.50137284,,,1,,
TRIA,"Trianon",,47.27322232,-1.43038312,,,1,,
TRNE,"Tribunes",,47.24997536,-1.56881726,,,1,,
TROC,"Trocardière",,47.18318560,-1.57028594,,,1,,
TRQU,"Terres Quartières",,47.13473935,-1.65914894,,,1,,
TTMO,"Trentemoult",,47.19140779,-1.58277779,,,1,,
TZEL,"Touzelles",,47.20835048,-1.46691839,,,1,,
UBRU,"Usine Brûlée",,47.19494901,-1.63192940,,,1,,
UGAZ,"Usine à gaz",,47.19453490,-1.62040235,,,1,,
UTCH,"Utrecht",,47.28314109,-1.55218221,,,1,,
UTLO,"Utrillo",,47.18233969,-1.56335465,,,1,,
VAIL,"Vaillant",,47.19962676,-1.67113033,,,1,,
VALL,"Vallée",,47.25042573,-1.57678668,,,1,,
VARI,"Vincent Auriol",,47.22179776,-1.59227572,,,1,,
VCSO,"Vaucanson",,47.21279965,-1.58143682,,,1,,
VDCE,"Val du Cens",,47.26108390,-1.66515341,,,1,,
VDLO,"Vieux Doulon",,47.23539998,-1.50401554,,,1,,
VDNI,"Ville au Denis",,47.16269186,-1.62702977,,,1,,
VDUR,"Verdure",,47.19591839,-1.65340905,,,1,,
VEAG,"Véga",,47.27966563,-1.46458336,,,1,,
VEGE,"Verger",,47.29309160,-1.49704348,,,1,,
VEIE,"Verrière",,47.27684313,-1.57064848,,,1,,
VEND,"Vendée",,47.20829389,-1.46863248,,,1,,
VEPR,"Vesprées",,47.24580282,-1.50264660,,,1,,
VERL,"Verlaine",,47.23386817,-1.59488151,,,1,,
VEXP,"Village Expo",,47.21499383,-1.61477719,,,1,,
VFOU,"Vieux Four",,47.19093184,-1.70087103,,,1,,
VGAC,"Vincent Gâche",,47.20635971,-1.54818815,,,1,,
VIAR,"Viarme-Talensac",,47.22118375,-1.56261703,,,1,,
VIER,"Viv'Erdre",,47.28563361,-1.55037822,,,1,,
VILE,"Violettes",,47.19748953,-1.50922341,,,1,,
VINE,"Villeneuve",,47.19391235,-1.51385522,,,1,,
VISO,"Vison",,47.24421766,-1.50967453,,,1,,
VIVI,"Viviers",,47.17308163,-1.48488496,,,1,,
VRIE,"Vrière",,47.28210909,-1.55607767,,,1,,
VRPD,"Vert Praud",,47.16649613,-1.54978652,,,1,,
VSCO,"Vincent Scotto",,47.25240959,-1.56608492,,,1,,
DPVT,"Vertonne",,47.18699783,-1.49433357,,,1,,
VTOU,"Vertou",,47.16920963,-1.47126986,,,1,,
VVRE,"Vièvre",,47.19806610,-1.81440774,,,1,,
WATT,"Wattignies",,47.20380749,-1.54641697,,,1,,
WDIS,"Walt Disney",,47.19488704,-1.49000938,,,1,,
XBON,"Croix Bonneau",,47.20961029,-1.59574262,,,1,,
XJAN,"Croix Jeannette",,47.17118328,-1.62369582,,,1,,
XREZ,"Croix de Rezé",,47.17933333,-1.55904059,,,1,,
XSYY,"Croisy",,47.25341677,-1.62634800,,,1,,
XTRU,"Croix Truin",,47.19136106,-1.71173896,,,1,,
ZENI,"Zénith",,47.23061352,-1.62941868,,,1,,
ZOLA,"Zola",,47.21381063,-1.58613736,,,1,,
ABCH1,"Abbé Chérel",,47.21011924,-1.65169222,,,0,ABCH,1
ABCH2,"Abbé Chérel",,47.21011924,-1.65169222,,,0,ABCH,1
ABDU1,"Abel Durand",,47.22024715,-1.60339908,,,0,ABDU,1
ABDU2,"Abel Durand",,47.22007197,-1.60325398,,,0,ABDU,1
ABLA1,"Avenue Blanche",,47.22982085,-1.58942719,,,0,ABLA,1
ABLA2,"Avenue Blanche",,47.22956030,-1.58914361,,,0,ABLA,1
ABOL1,"Adrienne Bolland",,47.26792208,-1.47658227,,,0,ABOL,1
ABOL2,"Adrienne Bolland",,47.26791335,-1.47684627,,,0,ABOL,1
ACHA1,"Angle Chaillou",,47.26977274,-1.57198411,,,0,ACHA,2
ACHA2,"Angle Chaillou",,47.26976827,-1.57211610,,,0,ACHA,2
ADBO1,"Audubon",,47.21401606,-1.72323592,,,0,ADBO,1
ADBO2,"Audubon",,47.21393551,-1.72296541,,,0,ADBO,1
ADEL1,"Aimé Delrue",,47.20925795,-1.55038114,,,0,ADEL,1
ADEL2,"Aimé Delrue",,47.20899731,-1.55009787,,,0,ADEL,1
ADEL3,"Aimé Delrue",,47.20926240,-1.55024930,,,0,ADEL,2
ADPI1,"Avenue des Pins",,47.25335508,-1.59657911,,,0,ADPI,1
ADPI3,"Avenue des Pins",,47.25367844,-1.59766118,,,0,ADPI,1
AECL1,"Aéroclub",,47.15926556,-1.59825258,,,0,AECL,2
AECL2,"Aéroclub",,47.15936441,-1.59799574,,,0,AECL,2
AEPO1,"Aéroport",,47.15761252,-1.59654656,,,0,AEPO,1
AEPO2,"Aéroport",,47.15770687,-1.59642144,,,0,AEPO,1
AESP1,"Aérospatiale",,47.16078877,-1.58793208,,,0,AESP,2
AESP2,"Aérospatiale",,47.16135928,-1.58704949,,,0,AESP,2
AFRA1,"Anatole France",,47.22377294,-1.57126714,,,0,AFRA,1
AFRA2,"Anatole France",,47.22376399,-1.57153091,,,0,AFRA,2
AFRA3,"Anatole France",,47.22392580,-1.57207157,,,0,AFRA,2
AGBE1,"L'Angebert",,47.14054089,-1.45576884,,,0,AGBE,2
AGBE2,"L'Angebert",,47.14072927,-1.45551818,,,0,AGBE,2
AGDR1,"Angebardière",,47.16974803,-1.50657066,,,0,AGDR,1
AGDR2,"Angebardière",,47.16951366,-1.50549728,,,0,AGDR,2
AGV98,"Angevinière",,47.24599501,-1.61164521,,,0,AGVI,1
AGVI1,"Angevinière",,47.24515933,-1.61237710,,,0,AGVI,1
AGVI2,"Angevinière",,47.24509659,-1.61157887,,,0,AGVI,1
AIBU1,"Airbus",,47.15869537,-1.59121199,,,0,AIBU,1
AIBU2,"Airbus",,47.15812483,-1.59209450,,,0,AIBU,1
AIBU3,"Airbus",,47.15855607,-1.59265433,,,0,AIBU,2
AIGU1,"Aiguillon",,47.25447241,-1.49652294,,,0,AIGU,1
AIGU2,"Aiguillon",,47.25445925,-1.49691883,,,0,AIGU,1
ALCH1,"Champ de l'Alouette",,47.28282777,-1.58008630,,,0,ALCH,1
ALCH2,"Champ de l'Alouette",,47.28328595,-1.57985517,,,0,ALCH,1
ALDE1,"Allende",,47.17541044,-1.62387641,,,0,ALDE,1
ALDE2,"Allende",,47.17534325,-1.62321096,,,0,ALDE,1
ALDE3,"Allende",,47.17484419,-1.62462708,,,0,ALDE,1
ALNE1,"Aulne",,47.27693730,-1.63907702,,,0,ALNE,1
ALNE2,"Aulne",,47.27633116,-1.63837020,,,0,ALNE,1
AMCA1,"Armoricaine",,47.25850156,-1.64868689,,,0,AMCA,1
AMCA2,"Armoricaine",,47.25827307,-1.64747915,,,0,AMCA,1
AMER1,"Américains",,47.23612591,-1.56820260,,,0,AMER,1
AMER2,"Américains",,47.23577547,-1.56791254,,,0,AMER,1
AMPE1,"Ampère",,47.26077064,-1.55320077,,,0,AMPE,1
AMPE2,"Ampère",,47.26076174,-1.55346472,,,0,AMPE,1
ANGE1,"Les Anges",,47.27529402,-1.63710197,,,0,ANGE,1
ANGE2,"Les Anges",,47.27520418,-1.63709529,,,0,ANGE,1
ANTO1,"Antons",,47.25768542,-1.62269552,,,0,ANTO,1
ANTO2,"Antons",,47.25784698,-1.62323668,,,0,ANTO,1
APAV1,"Apave",,47.22565984,-1.64769437,,,0,APAV,1
APAV2,"Apave",,47.22539944,-1.64741053,,,0,APAV,1
APER1,"Ampère",,47.30227711,-1.50789738,,,0,APER,2
APER2,"Ampère",,47.30209741,-1.50788445,,,0,APER,2
APRE1,"Ambroise Paré",,47.22889385,-1.60866390,,,0,APRE,1
APRE2,"Ambroise Paré",,47.22907805,-1.60854526,,,0,APRE,1
AQUI1,"Aquitaine",,47.20985019,-1.61505823,,,0,AQUI,1
AQUI2,"Aquitaine",,47.20976487,-1.61491975,,,0,AQUI,1
ARAG1,"Arago",,47.30355064,-1.50481141,,,0,ARAG,1
ARAG2,"Arago",,47.30354185,-1.50507558,,,0,ARAG,1
ARBO1,"Arbois",,47.25862883,-1.58188527,,,0,ARBO,1
ARBO2,"Arbois",,47.25844466,-1.58200407,,,0,ARBO,1
ARCA1,"Arcades",,47.21178969,-1.65287423,,,0,ARCA,1
ARCA2,"Arcades",,47.21203639,-1.65355356,,,0,ARCA,1
ARGO1,"Argonautes",,47.30242198,-1.48182549,,,0,ARGO,1
ARGO2,"Argonautes",,47.30242198,-1.48182549,,,0,ARGO,1
ARMO2,"Armorique",,47.27147205,-1.44534382,,,0,ARMO,2
AROR1,"Armor",,47.23108902,-1.63130520,,,0,AROR,1
AROR2,"Armor",,47.23117886,-1.63131186,,,0,AROR,1
AROR3,"Armor",,47.23107086,-1.63183278,,,0,AROR,1
AROR4,"Armor",,47.23106632,-1.63196468,,,0,AROR,1
ATAR1,"Antarès",,47.28162778,-1.45969389,,,0,ATAR,1
ATAR2,"Antarès",,47.28171329,-1.45983230,,,0,ATAR,1
AUCP1,"La Chapelle Aulnay",,47.30821266,-1.54314964,,,0,AUCP,1
AUCP2,"La Chapelle Aulnay",,47.30821266,-1.54314964,,,0,AUCP,1
AUCP3,"La Chapelle Aulnay",,47.30814501,-1.54248265,,,0,AUCP,1
AUFR1,"L'Aufrère",,47.16804829,-1.52507017,,,0,AUFR,2
AUGE1,"Augé",,47.19496578,-1.51736648,,,0,AUGE,1
AURR1,"Aurore",,47.26557814,-1.58146854,,,0,AURR,2
AURR2,"Aurore",,47.26539845,-1.58145537,,,0,AURR,2
AVEN1,"Aveneaux",,47.23393311,-1.62979710,,,0,AVEN,2
AVEN2,"Aveneaux",,47.23282778,-1.63050854,,,0,AVEN,2
BABI1,"Barbinière",,47.15949854,-1.48167106,,,0,BABI,1
BABI2,"Barbinière",,47.15985795,-1.48169668,,,0,BABI,1
BAGA1,"Bagatelle",,47.24354033,-1.62019325,,,0,BAGA,2
BAGA2,"Bagatelle",,47.24354938,-1.61992939,,,0,BAGA,2
BAIE1,"Babinière",,47.25920497,-1.54620749,,,0,BAIE,1
BAIR1,"Bel Air",,47.22578752,-1.55964729,,,0,BAIR,1
BAIR2,"Bel Air",,47.22544151,-1.55922545,,,0,BAIR,1
BALI1,"Balinière",,47.18626783,-1.55373215,,,0,BALI,1
BALI2,"Balinière",,47.18598939,-1.55397615,,,0,BALI,1
BALI3,"Balinière",,47.18462388,-1.55440535,,,0,BALI,1
BALI4,"Balinière",,47.18481247,-1.55415483,,,0,BALI,1
BANS1,"Bois des Anses",,47.24723416,-1.49481369,,,0,BANS,1
BANS2,"Bois des Anses",,47.24705446,-1.49480082,,,0,BANS,1
BANS3,"Bois des Anses",,47.24660522,-1.49476863,,,0,BANS,1
BANS4,"Bois des Anses",,47.24669068,-1.49490701,,,0,BANS,1
BARR1,"La Barre",,47.30844177,-1.38295034,,,0,BARR,2
BARR2,"La Barre",,47.30881395,-1.38257905,,,0,BARR,2
BAS99,"Bastille",,47.17894626,-1.59692494,,,0,BAST,2
BAST1,"Bastille",,47.17903610,-1.59693154,,,0,BAST,2
BAST2,"Bastille",,47.17938648,-1.59722149,,,0,BAST,2
BATI1,"Batignolles",,47.25551867,-1.52993327,,,0,BATI,1
BATI2,"Batignolles",,47.25560409,-1.53007173,,,0,BATI,1
BAUG1,"Baugerie",,47.20349417,-1.52088809,,,0,BAUG,1
BAUG2,"Baugerie",,47.20378578,-1.52024833,,,0,BAUG,1
BAVO1,"Basse Orévière",,47.22049657,-1.65894412,,,0,BAVO,1
BAVO2,"Basse Orévière",,47.22040673,-1.65893741,,,0,BAVO,1
BBON1,"Boisbonne",,47.28686058,-1.50837641,,,0,BBON,1
BBON2,"Boisbonne",,47.28685178,-1.50864049,,,0,BBON,1
BCES1,"Bois Cesbron",,47.26104500,-1.62453204,,,0,BCES,1
BCES2,"Bois Cesbron",,47.26096422,-1.62426144,,,0,BCES,1
BCGA1,"Bd Charles Gautier",,47.22227709,-1.60725043,,,0,BCGA,1
BCGA2,"Bd Charles Gautier",,47.22182336,-1.60734919,,,0,BCGA,1
BCHE1,"Basse Chênaie",,47.24101394,-1.50851837,,,0,BCHE,1
BCHE2,"Basse Chênaie",,47.24148518,-1.50789102,,,0,BCHE,1
BCHE3,"Basse Chênaie",,47.24100954,-1.50865030,,,0,BCHE,1
BCHE4,"Basse Chênaie",,47.24181377,-1.50884038,,,0,BCHE,1
BCNY1,"Bas-Chantenay",,47.19821371,-1.58922286,,,0,BCNY,1
BCNY2,"Bas-Chantenay",,47.19822269,-1.58895923,,,0,BCNY,2
BCNY3,"Bas-Chantenay",,47.19833948,-1.58817490,,,0,BCNY,2
BCOI1,"Branchoire",,47.21782589,-1.60308856,,,0,BCOI,1
BCOI2,"Branchoire",,47.21799656,-1.60336553,,,0,BCOI,1
BCOI3,"Branchoire",,47.21852660,-1.60366896,,,0,BCOI,1
BCOI4,"Branchoire",,47.21787967,-1.60415010,,,0,BCOI,1
BCTT1,"Blanchet",,47.17166881,-1.54329386,,,0,BCTT,1
BCTT2,"Blanchet",,47.17131385,-1.54313606,,,0,BCTT,1
BDAN1,"Bd des Anglais",,47.22644702,-1.58270091,,,0,BDAN,1
BDAN2,"Bd des Anglais",,47.22642460,-1.58336035,,,0,BDAN,1
BDAN3,"Bd des Anglais",,47.22670758,-1.58298444,,,0,BDAN,1
BDAN4,"Bd des Anglais",,47.22615955,-1.58320871,,,0,BDAN,1
BDEL1,"Baudelaire",,47.23366160,-1.59301502,,,0,BDEL,1
BDEL2,"Baudelaire",,47.23394462,-1.59263911,,,0,BDEL,2
BDIN1,"Bodinières",,47.20969681,-1.64306896,,,0,BDIN,1
BDIN2,"Bodinières",,47.20979576,-1.64281196,,,0,BDIN,1
BDIN3,"Bodinières",,47.21000731,-1.64190242,,,0,BDIN,1
BDIN4,"Bodinières",,47.21028138,-1.64179062,,,0,BDIN,2
BDLA1,"Bout des Landes",,47.26753227,-1.58227339,,,0,BDLA,1
BDNN1,"Bourdonnais",,47.20555361,-1.57998111,,,0,BDNN,1
BDNN2,"Bourdonnais",,47.20646998,-1.57951951,,,0,BDNN,1
BDOU1,"Bd de Doulon",,47.22469671,-1.51977291,,,0,BDOU,1
BDOU2,"Bd de Doulon",,47.22423423,-1.52013619,,,0,BDOU,1
BDOU3,"Bd de Doulon",,47.22441392,-1.52014915,,,0,BDOU,1
BDOU7,"Bd de Doulon",,47.22397351,-1.51985298,,,0,BDOU,1
BDP99,"Bout des Pavés",,47.25352966,-1.57555877,,,0,FATA,2
BDPA1,"Bout des Pavés",,47.25278405,-1.57629790,,,0,BDPA,1
BDPA2,"Bout des Pavés",,47.25278405,-1.57629790,,,0,BDPA,1
BDPA6,"Bout des Pavés",,47.25332759,-1.57620540,,,0,BDPA,1
BDRI1,"Bourderies",,47.20663194,-1.59592025,,,0,BDRI,1
BDRI2,"Bourderies",,47.20664094,-1.59565658,,,0,BDRI,1
BDSP1,"Bd des Sports",,47.16589542,-1.46799687,,,0,BDSP,1
BDSP2,"Bd des Sports",,47.16559974,-1.46876821,,,0,BDSP,1
BDUC2,"Bourgault-Ducoudray",,47.20246519,-1.54883051,,,0,BDUC,2
BEDR1,"Bel Endroit",,47.15329989,-1.63557761,,,0,BEDR,1
BEDR2,"Bel Endroit",,47.15470661,-1.63396536,,,0,BEDR,1
BEGE1,"Beauger",,47.23420400,-1.55311981,,,0,BEGE,2
BEGE2,"Beauger",,47.23430274,-1.55286252,,,0,BEGE,2
BEHI1,"Béhinière",,47.19776970,-1.79257748,,,0,BEHI,1
BEHI2,"Béhinière",,47.19701789,-1.79093353,,,0,BEHI,1
BEIL1,"Beillevaire",,47.24956252,-1.60741126,,,0,BEIL,1
BEIL2,"Beillevaire",,47.24938735,-1.60726607,,,0,BEIL,1
BELE1,"Bêle",,47.26472488,-1.51048865,,,0,DPBL,1
BELE2,"Bêle",,47.26490018,-1.51063358,,,0,DPBL,1
BEMZ1,"Belges - Montbazon",,47.23461282,-1.54098400,,,0,BEMZ,1
BEMZ2,"Belges - Montbazon",,47.23445975,-1.54017950,,,0,BEMZ,1
BEMZ3,"Belges - Montbazon",,47.23587954,-1.54081137,,,0,BEMZ,1
BEMZ4,"Belges - Montbazon",,47.23560113,-1.54105566,,,0,BEMZ,1
BEN99,"Beaulieu",,47.20394287,-1.53704358,,,0,BENA,2
BENA1,"Beaulieu",,47.20411813,-1.53718842,,,0,BENA,1
BENA2,"Beaulieu",,47.20394287,-1.53704358,,,0,BENA,1
BENA3,"Beaulieu",,47.20347912,-1.53476335,,,0,BENA,1
BENA4,"Beaulieu",,47.20368096,-1.53411717,,,0,BENA,1
BEOC1,"Belloc",,47.20374088,-1.61460707,,,0,BEOC,1
BEOC2,"Belloc",,47.20301761,-1.61468583,,,0,BEOC,1
BESS1,"Bessonneau",,47.21479930,-1.71377698,,,0,BESS,1
BESS2,"Bessonneau",,47.21462890,-1.71349968,,,0,BESS,1
BETO1,"Belle Etoile",,47.28061724,-1.45207869,,,0,BETO,1
BETO2,"Belle Etoile",,47.28018099,-1.45165075,,,0,BETO,1
BEVA1,"Beauvaiserie",,47.13625604,-1.65437802,,,0,BEVA,2
BEVA2,"Beauvaiserie",,47.13617533,-1.65410801,,,0,BEVA,2
BGAR1,"Bonne Garde",,47.19702208,-1.53125706,,,0,BGAR,1
BGAR2,"Bonne Garde",,47.19675253,-1.53123758,,,0,BGAR,1
BGCY1,"Beaugency",,47.20326499,-1.48994769,,,0,BGCY,1
BGCY2,"Beaugency",,47.20379533,-1.49024992,,,0,BGCY,1
BGLA1,"Basse-Goulaine",,47.21085043,-1.46484923,,,0,BGLA,2
BGLA2,"Basse-Goulaine",,47.21067943,-1.46457274,,,0,BGLA,2
BGLA3,"Basse-Goulaine",,47.21085043,-1.46484923,,,0,BGLA,1
BGLA4,"Basse-Goulaine",,47.21067943,-1.46457274,,,0,BGLA,1
BGLA5,"Basse-Goulaine",,47.21035767,-1.46613590,,,0,BGLA,1
BGLA6,"Basse-Goulaine",,47.21036202,-1.46600404,,,0,BGLA,1
BGNN1,"Bourgonnière",,47.20665360,-1.65553130,,,0,BGNN,1
BGNN2,"Bourgonnière",,47.20656376,-1.65552459,,,0,BGNN,1
BGOG1,"Bourgogne",,47.24658562,-1.58907096,,,0,BGOG,1
BGOG2,"Bourgogne",,47.24639695,-1.58932164,,,0,BGOG,1
BGRI1,"Bougrière",,47.25511460,-1.47170041,,,0,BGRI,1
BGRI2,"Bougrière",,47.25501168,-1.47208992,,,0,BGRI,1
BGSH1,"Bergerie",,47.23794964,-1.62824352,,,0,BGSH,2
BGSH2,"Bergerie",,47.23721277,-1.62871787,,,0,BGSH,2
BGTT1,"Bergeronnettes",,47.23950537,-1.60124722,,,0,BGTT,2
BGTT2,"Bergeronnettes",,47.23926287,-1.60043586,,,0,BGTT,2
BGUT1,"Louis Breguet",,47.27205303,-1.46602672,,,0,BGUT,1
BGUT2,"Louis Breguet",,47.27204868,-1.46615873,,,0,BGUT,1
BGVI1,"Bougainville",,47.19894579,-1.58359414,,,0,BGVI,2
BGVI2,"Bougainville",,47.19885595,-1.58358756,,,0,BGVI,2
BHAR1,"Bois Hardy",,47.19828056,-1.60046039,,,0,BHAR,1
BHAR2,"Bois Hardy",,47.19820423,-1.60005832,,,0,BHAR,1
BIAN1,"Aristide Briand",,47.29640065,-1.49503045,,,0,BIAN,2
BIAN2,"Aristide Briand",,47.29630642,-1.49515607,,,0,BIAN,1
BIEE1,"Belle Île",,47.22439959,-1.73275085,,,0,BIEE,2
BIEE2,"Belle Île",,47.22405887,-1.73219604,,,0,BIEE,1
BIGN1,"Bignons",,47.19972366,-1.49352665,,,0,BIGN,1
BIGN2,"Bignons",,47.19981789,-1.49340125,,,0,BIGN,2
BIGN3,"Bignons",,47.19975433,-1.49260384,,,0,BIGN,2
BILE1,"Basse Ile",,47.19598233,-1.56210239,,,0,BILE,2
BILE2,"Basse Ile",,47.19567263,-1.56326908,,,0,BILE,1
BIND1,"Basse Indre",,47.19786018,-1.67271604,,,0,BIND,1
BIND2,"Basse Indre",,47.19761360,-1.67203679,,,0,BIND,1
BIND3,"Basse Indre",,47.19766674,-1.67309800,,,0,BIND,1
BIOT1,"Bigeottière",,47.25599275,-1.61952741,,,0,BIOT,1
BIOT2,"Bigeottière",,47.25591197,-1.61925685,,,0,BIOT,1
BJLI1,"Bois Jaulin",,47.17757104,-1.63698208,,,0,BJLI,1
BJLI2,"Bois Jaulin",,47.17757559,-1.63685031,,,0,BJLI,1
BJOI1,"Beaujoire",,47.25884014,-1.52488181,,,0,BJOI,1
BJOI2,"Beaujoire",,47.25877238,-1.52421546,,,0,BJOI,1
BJOI6,"Beaujoire",,47.25955152,-1.52784367,,,0,BJOI,1
BJOI7,"Beaujoire",,47.25918771,-1.52794966,,,0,BJOI,1
BLAV1,"Balavoine",,47.30657698,-1.55428586,,,0,BLAV,1
BLAV2,"Balavoine",,47.30637948,-1.55480112,,,0,BLAV,1
BLCH1,"Blancho",,47.21315286,-1.73493592,,,0,BLCH,1
BLCH2,"Blancho",,47.21325202,-1.73467907,,,0,BLCH,1
BLDR1,"Boulodrome",,47.25762607,-1.51540161,,,0,BLDR,1
BLDR2,"Boulodrome",,47.25839332,-1.51400171,,,0,BLDR,1
BLEM1,"Belem",,47.26563709,-1.45300144,,,0,BLEM,2
BLEM2,"Belem",,47.26545739,-1.45298870,,,0,BLEM,2
BLGO1,"Berligout",,47.21576638,-1.67842053,,,0,BLGO,2
BLGO2,"Berligout",,47.21567195,-1.67854564,,,0,BLGO,2
BLL98,"Bellestre",,47.14846357,-1.69436915,,,0,BLL9,1
BLLE1,"Bellestre",,47.14793376,-1.69406522,,,0,BLLE,1
BLLE2,"Bellestre",,47.14840602,-1.69344058,,,0,BLLE,1
BLNO1,"Bois de La Noé",,47.14186934,-1.67169414,,,0,BLNO,2
BLNO2,"Bois de La Noé",,47.14178867,-1.67142407,,,0,BLNO,2
BLOR1,"Blordière",,47.17990799,-1.53398357,,,0,BLOR,1
BLOR2,"Blordière",,47.18000227,-1.53385829,,,0,BLOR,1
BLSL1,"Bellevue",,47.23541838,-1.47360365,,,0,BLSL,2
BLUA1,"Bélouga",,47.16579752,-1.58367679,,,0,BLUA,1
BLVU1,"Mendès France - Bellevue",,47.20852569,-1.61165603,,,0,BLVU,1
BLVU2,"Mendès France - Bellevue",,47.20889862,-1.61128702,,,0,BLVU,1
BLVU3,"Mendès France - Bellevue",,47.20888055,-1.61181439,,,0,BLVU,1
BLVU4,"Mendès France - Bellevue",,47.20898394,-1.61142549,,,0,BLVU,1
BLVU5,"Mendès France - Bellevue",,47.20871441,-1.61140560,,,0,BLVU,1
BLVU6,"Mendès France - Bellevue",,47.20853021,-1.61152418,,,0,BLVU,1
BLVU7,"Mendès France - Bellevue",,47.20796405,-1.61227545,,,0,BLVU,2
BLZZ1,"Berlioz",,47.23961242,-1.57163115,,,0,BLZZ,1
BLZZ3,"Berlioz",,47.23961689,-1.57149923,,,0,BLZZ,1
BNCH1,"Blanchetière",,47.28985794,-1.55598041,,,0,BNCH,1
BNCH2,"Blanchetière",,47.28967380,-1.55609936,,,0,BNCH,1
BNET1,"Bignonnet",,47.17553725,-1.46511578,,,0,BNET,1
BNET2,"Bignonnet",,47.17553725,-1.46511578,,,0,BNET,1
BNIE1,"Bournière",,47.25439588,-1.45524697,,,0,BNIE,2
BNLU1,"Bénélux",,47.25411511,-1.49914288,,,0,BNLU,2
BNLU2,"Bénélux",,47.25402527,-1.49913644,,,0,BNLU,2
BNNO1,"Bernanos",,47.20648589,-1.61335590,,,0,BNNO,1
BNNO2,"Bernanos",,47.20619828,-1.61386335,,,0,BNNO,1
BNON1,"Bignon",,47.24934349,-1.59800357,,,0,BNON,1
BNON2,"Bignon",,47.24908296,-1.59771985,,,0,BNON,1
BNTA1,"BN",,47.18394946,-1.49662542,,,0,BNTA,2
BNTA2,"BN",,47.18458718,-1.49640687,,,0,BNTA,1
BNVI1,"Bonneville",,47.24395007,-1.53650309,,,0,BNVI,1
BNVI2,"Bonneville",,47.24386466,-1.53636465,,,0,BNVI,1
BOCE1,"Centre de Bouguenais",,47.17939525,-1.62324646,,,0,BOCE,2
BOCE2,"Centre de Bouguenais",,47.17867198,-1.62332507,,,0,BOCE,2
BODO1,"Bourdonnières",,47.18718746,-1.52103414,,,0,BODO,1
BODO2,"Bourdonnières",,47.18756010,-1.52066465,,,0,BODO,1
BODO3,"Bourdonnières",,47.18634350,-1.52203023,,,0,BODO,1
BODO4,"Bourdonnières",,47.18642894,-1.52216850,,,0,BODO,1
BOFA1,"Bouffay",,47.21460870,-1.55195955,,,0,BOFA,1
BOFA2,"Bouffay",,47.21449215,-1.55274419,,,0,BOFA,1
BOGE1,"Bourgeonnière",,47.25324376,-1.56006086,,,0,BOGE,1
BOGE2,"Bourgeonnière",,47.25317174,-1.55952649,,,0,BOGE,1
BOGE3,"Bourgeonnière",,47.25303285,-1.56097146,,,0,BOGE,2
BOGE4,"Bourgeonnière",,47.25293409,-1.56122882,,,0,BOGE,2
BOLL1,"Bois Tillac",,47.20023993,-1.77135665,,,0,BOLL,1
BOLL2,"Bois Tillac",,47.20015480,-1.77121795,,,0,BOLL,1
BOND1,"Bonde",,47.22253740,-1.55187487,,,0,BOND,1
BOND2,"Bonde",,47.22261834,-1.55214517,,,0,BOND,1
BORL1,"Bourrelière",,47.15793215,-1.49898871,,,0,BORL,2
BORL2,"Bourrelière",,47.15831350,-1.49835581,,,0,BORL,2
BOSI1,"Boissière",,47.25529800,-1.56589892,,,0,BOSI,1
BOSI2,"Boissière",,47.25493863,-1.56587269,,,0,BOSI,1
BOSI3,"Boissière",,47.25512278,-1.56575384,,,0,BOSI,2
BOSI4,"Boissière",,47.25484432,-1.56599809,,,0,BOSI,1
BOTI1,"Boutière",,47.15796666,-1.46809386,,,0,BOTI,1
BOTI2,"Boutière",,47.15724784,-1.46804280,,,0,BOTI,1
BOUE1,"Bio Ouest Laënnec",,47.23270638,-1.64187191,,,0,BOUE,2
BOUE2,"Bio Ouest Laënnec",,47.23270183,-1.64200381,,,0,BOUE,2
BOVR1,"Bouvre",,47.17805474,-1.61244717,,,0,BOVR,1
BOVR2,"Bouvre",,47.17830167,-1.61312589,,,0,BOVR,1
BPTY1,"Boulay Paty",,47.22891717,-1.57627077,,,0,BPTY,2
BPTY2,"Boulay Paty",,47.22905625,-1.57482650,,,0,BPTY,2
BRAG1,"Bois Raguenet",,47.26664702,-1.60033591,,,0,BRAG,1
BRAG2,"Bois Raguenet",,47.26682671,-1.60034915,,,0,BRAG,1
BRBI1,"Bois Robillard",,47.23514550,-1.51973294,,,0,BRBI,1
BRBI2,"Bois Robillard",,47.23568017,-1.51990372,,,0,BRBI,1
BRCH1,"Bréchetière",,47.28477709,-1.50332935,,,0,BRCH,1
BRCH2,"Bréchetière",,47.28467406,-1.50371901,,,0,BRCH,1
BRDI1,"Briandière",,47.19055221,-1.69370693,,,0,BRDI,1
BRDI2,"Briandière",,47.18970915,-1.69205782,,,0,BRDI,1
BRET1,"Bretonnière",,47.16651436,-1.46289052,,,0,BRET,1
BRET2,"Bretonnière",,47.16633900,-1.46274602,,,0,BRET,1
BRGA1,"Beauregard",,47.21076342,-1.65649887,,,0,BRGA,2
BRGA2,"Beauregard",,47.21011169,-1.65711114,,,0,BRGA,1
BRIN1,"Brains",,47.16961500,-1.72303943,,,0,BRIN,1
BRLA1,"Brouillard",,47.27395885,-1.51446158,,,0,BRLA,1
BRLA2,"Brouillard",,47.27313261,-1.51493135,,,0,BRLA,1
BRNI1,"Baronnière",,47.25959399,-1.60378548,,,0,BRNI,1
BRNI2,"Baronnière",,47.25949964,-1.60391082,,,0,BRNI,1
BROS1,"Brossais",,47.16258113,-1.58555429,,,0,BROS,2
BROS2,"Brossais",,47.16343462,-1.58429618,,,0,BROS,2
BRTA1,"Bretagne",,47.21735540,-1.55863661,,,0,BRTA,1
BRTA2,"Bretagne",,47.21709924,-1.55822138,,,0,BRTA,1
BRUN1,"Bruneau",,47.22823630,-1.56180896,,,0,BRUN,1
BRUN2,"Bruneau",,47.22798014,-1.56139363,,,0,BRUN,1
BRVI1,"Boris Vian",,47.15337928,-1.68259089,,,0,BRVI,1
BRVI2,"Boris Vian",,47.15316740,-1.68349931,,,0,BRVI,1
BSAN1,"Bobby Sands",,47.22998763,-1.65277709,,,0,BSAN,1
BSAN2,"Bobby Sands",,47.22988866,-1.65303418,,,0,BSAN,1
BSE10,"Beauséjour",,47.23795164,-1.58605673,,,0,BSEJ,1
BSE11,"Beauséjour",,47.23814030,-1.58580608,,,0,BSEJ,1
BSEJ1,"Beauséjour",,47.23827061,-1.58727035,,,0,BSEJ,1
BSEJ2,"Beauséjour",,47.23801455,-1.58685482,,,0,BSEJ,1
BSEJ3,"Beauséjour",,47.23792470,-1.58684823,,,0,BSEJ,1
BSEJ4,"Beauséjour",,47.23809541,-1.58712525,,,0,BSEJ,1
BSEJ5,"Beauséjour",,47.23818076,-1.58726376,,,0,BSEJ,1
BSEJ6,"Beauséjour",,47.23836494,-1.58714502,,,0,BSEJ,1
BSEJ7,"Beauséjour",,47.23837392,-1.58688119,,,0,BSEJ,1
BSEJ8,"Beauséjour",,47.23792919,-1.58671631,,,0,BSEJ,1
BSEJ9,"Beauséjour",,47.23811786,-1.58646566,,,0,BSEJ,1
BSIS1,"Bossis",,47.21249135,-1.71280909,,,0,BSIS,1
BSIS2,"Bossis",,47.21242004,-1.71227491,,,0,BSIS,1
BSNI1,"Bussonnière",,47.26893560,-1.44304738,,,0,BSNI,1
BSNI2,"Bussonnière",,47.26972263,-1.44376460,,,0,BSNI,1
BSOL1,"Beau Soleil",,47.17781880,-1.64545499,,,0,BSOL,2
BSOL2,"Beau Soleil",,47.17766190,-1.64478281,,,0,BSOL,2
BSTI1,"Bastière",,47.14843797,-1.45936421,,,0,BSTI,2
BSTI2,"Bastière",,47.14915680,-1.45941515,,,0,BSTI,2
BSYS1,"Bois St-Lys",,47.30034674,-1.48194193,,,0,BSYS,1
BSYS2,"Bois St-Lys",,47.30034674,-1.48194193,,,0,BSYS,1
BTAI1,"Brétinais",,47.22178591,-1.66591546,,,0,BTAI,1
BTAI2,"Brétinais",,47.22170065,-1.66577687,,,0,BTAI,1
BTCY1,"Lycée Bois Tillac",,47.20343111,-1.77027988,,,0,BTCY,1
BTEC1,"Brétéché",,47.22583320,-1.54761923,,,0,BTEC,1
BTEC2,"Brétéché",,47.22535286,-1.54850983,,,0,BTEC,1
BTIE1,"Bottière",,47.24023431,-1.51838071,,,0,BTIE,1
BTIE2,"Bottière",,47.24024313,-1.51811685,,,0,BTIE,1
BTLE1,"Bouteillerie",,47.22146970,-1.54346856,,,0,BTLE,1
BTLE2,"Bouteillerie",,47.22167159,-1.54282219,,,0,BTLE,1
BTRA1,"Bertrand",,47.25712789,-1.57568980,,,0,BTRA,1
BTRA2,"Bertrand",,47.25703804,-1.57568323,,,0,BTRA,1
BUGA1,"Bugallière",,47.25996214,-1.63768218,,,0,BUGA,1
BUGA2,"Bugallière",,47.25995304,-1.63794611,,,0,BUGA,1
BULA1,"Butte des Landes",,47.16043494,-1.49415017,,,0,BULA,1
BULA2,"Butte des Landes",,47.16080750,-1.49378067,,,0,BULA,1
BUON1,"Bougon",,47.17415130,-1.61070627,,,0,BUON,1
BUON3,"Bougon",,47.17441632,-1.61085790,,,0,BUON,1
BUSS1,"Buisson",,47.26062797,-1.48743916,,,0,BUSS,2
BUSS2,"Buisson",,47.25990043,-1.48765170,,,0,BUSS,2
BVDI1,"Bouvardière",,47.23843200,-1.59839097,,,0,BVDI,2
BVDI2,"Bouvardière",,47.23834215,-1.59838436,,,0,BVDI,2
BVER1,"Bouvernière",,47.23761711,-1.61168790,,,0,BVER,1
BVER2,"Bouvernière",,47.23807536,-1.61145724,,,0,BVER,1
BVOI1,"Beauvoir",,47.17848969,-1.63123773,,,0,BVOI,2
BVOI2,"Beauvoir",,47.17851239,-1.63057890,,,0,BVOI,2
BVOI3,"Beauvoir",,47.17893163,-1.62625055,,,0,BVOI,1
BVOI4,"Beauvoir",,47.17892710,-1.62638231,,,0,BVOI,1
BYCE1,"Centre de Bouaye",,47.14396012,-1.69178590,,,0,BYCE,1
BYCE2,"Centre de Bouaye",,47.14387489,-1.69164746,,,0,BYCE,1
BYGA1,"Gare de Bouaye",,47.13830447,-1.68093198,,,0,BYGA,2
BYGA2,"Gare de Bouaye",,47.13821463,-1.68092525,,,0,BYGA,2
BYTO1,"Bouaye Coteaux",,47.16448229,-1.67932998,,,0,BYTO,1
BZAR1,"Buzardières",,47.20723065,-1.65967180,,,0,BZAR,1
BZAR2,"Buzardières",,47.20686215,-1.65990863,,,0,BZAR,1
CABR1,"Cabrol",,47.20327644,-1.58866916,,,0,CABR,2
CABR2,"Cabrol",,47.20418835,-1.58833956,,,0,CABR,2
CACE1,"Centre de Carquefou",,47.29710622,-1.49005046,,,0,CACE,1
CACE2,"Centre de Carquefou",,47.29715228,-1.49137760,,,0,CACE,1
CACE3,"Centre de Carquefou",,47.29653649,-1.49093632,,,0,CACE,2
CADO1,"Cadoire",,47.25673385,-1.48808660,,,0,CADO,1
CADO2,"Cadoire",,47.25673385,-1.48808660,,,0,CADO,1
CAGE1,"Chalonges",,47.27613635,-1.42939758,,,0,CAGE,2
CAHL1,"Charlière",,47.32102226,-1.55057037,,,0,CAHL,2
CAHL2,"Charlière",,47.32085147,-1.55029304,,,0,CAHL,2
CAIO1,"Caillou Blanc",,47.29867619,-1.58548503,,,0,CAIO,1
CAIO2,"Caillou Blanc",,47.29895021,-1.58537276,,,0,CAIO,1
CALI1,"Californie",,47.19180767,-1.58426052,,,0,CALI,2
CALI2,"Californie",,47.19126412,-1.58435283,,,0,CALI,1
CALI3,"Californie",,47.19087333,-1.58524911,,,0,CALI,1
CANC1,"Canclaux",,47.21383670,-1.57477131,,,0,CANC,1
CANC2,"Canclaux",,47.21383222,-1.57490316,,,0,CANC,1
CANC3,"Canclaux",,47.21491931,-1.57471827,,,0,CANC,1
CANC4,"Canclaux",,47.21536406,-1.57488297,,,0,CANC,1
CAPE1,"Capellia",,47.27971448,-1.55497680,,,0,CAPE,1
CAPE2,"Capellia",,47.27971448,-1.55497680,,,0,CAPE,1
CARQ1,"Carquefou",,47.30365167,-1.48548819,,,0,CARQ,2
CARQ2,"Carquefou",,47.30364730,-1.48562028,,,0,CARQ,1
CAST1,"Castorama",,47.25888736,-1.50729045,,,0,CAST,2
CAST2,"Castorama",,47.25899041,-1.50690098,,,0,CAST,2
CATI1,"Cartier",,47.26816466,-1.45556222,,,0,CATI,1
CATI2,"Cartier",,47.26753137,-1.45564960,,,0,CATI,2
CATV1,"CAT Vertonne",,47.18425133,-1.48211548,,,0,CATV,1
CATV2,"CAT Vertonne",,47.18416147,-1.48210907,,,0,CATV,1
CAUX1,"Château D'Aux",,47.18529904,-1.67388918,,,0,CAUX,1
CAUX2,"Château D'Aux",,47.18501575,-1.67426432,,,0,CAUX,1
CAUX3,"Château D'Aux",,47.18536593,-1.67455481,,,0,CAUX,1
CBAC1,"Bac de Couëron",,47.20598805,-1.75157415,,,0,CBAC,2
CBEA1,"Charbonneau",,47.30066718,-1.48858445,,,0,CBEA,1
CBEA2,"Charbonneau",,47.30068698,-1.49070416,,,0,CBEA,1
CBEA3,"Charbonneau",,47.30085125,-1.48846524,,,0,CBEA,2
CBGE1,"Chapeau Berger",,47.17100393,-1.46875604,,,0,CBGE,1
CBGE2,"Chapeau Berger",,47.17154304,-1.46879436,,,0,CBGE,1
CBGE3,"Chapeau Berger",,47.17186919,-1.46710059,,,0,CBGE,1
CBIN1,"Corbinerie",,47.16152930,-1.54216313,,,0,CBIN,1
CBIN2,"Corbinerie",,47.16161915,-1.54216964,,,0,CBIN,1
CBLE1,"Chemin Bleu",,47.17822772,-1.52501183,,,0,CBLE,1
CBLE2,"Chemin Bleu",,47.17831315,-1.52515008,,,0,CBLE,1
CBOU1,"Couëron Bougon",,47.22508102,-1.73386051,,,0,CBOU,1
CBRD1,"Claude Bernard",,47.22311184,-1.61180715,,,0,CBRD,1
CBRD2,"Claude Bernard",,47.22310732,-1.61193903,,,0,CBRD,1
CBSS1,"Cambronne",,47.20658880,-1.50644117,,,0,CBSS,1
CBSS2,"Cambronne",,47.20658880,-1.50644117,,,0,CBSS,1
CBTE1,"Choblèterie",,47.13621221,-1.46140176,,,0,CBTE,1
CBTE2,"Choblèterie",,47.13620786,-1.46153344,,,0,CBTE,2
CCAN1,"Couchant",,47.26838555,-1.59953772,,,0,CCAN,2
CCDI1,"Cochardières",,47.22994281,-1.63320361,,,0,CCDI,1
CCDI2,"Cochardières",,47.22909336,-1.63433061,,,0,CCDI,1
CCDI3,"Cochardières",,47.22981663,-1.63425208,,,0,CCDI,2
CCHA1,"Couchant",,47.27020292,-1.51366167,,,0,CCHA,1
CCHA2,"Couchant",,47.27010866,-1.51378720,,,0,CCHA,1
CCLA1,"Cimetière de la Classerie",,47.17078005,-1.55894662,,,0,CCLA,1
CCLA2,"Cimetière de la Classerie",,47.17135033,-1.55806356,,,0,CCLA,1
CCOU1,"Champ de Courses",,47.24456069,-1.56114747,,,0,CCOU,1
CCOU2,"Champ de Courses",,47.24498315,-1.56197183,,,0,CCOU,1
CCRE1,"Chêne Creux",,47.17040404,-1.54874939,,,0,CCRE,1
CCRE2,"Chêne Creux",,47.17005354,-1.54845981,,,0,CCRE,1
CDAN1,"Chêne des Anglais",,47.26143557,-1.57349133,,,0,CDAN,1
CDAN2,"Chêne des Anglais",,47.26136362,-1.57295686,,,0,CDAN,1
CDAN3,"Chêne des Anglais",,47.26153883,-1.57310197,,,0,CDAN,1
CDAN4,"Chêne des Anglais",,47.26152094,-1.57362988,,,0,CDAN,1
CDAN5,"Chêne des Anglais",,47.26139977,-1.57454713,,,0,CDAN,1
CDAN6,"Chêne des Anglais",,47.26139082,-1.57481108,,,0,CDAN,1
CDCO1,"Cité des Congrès",,47.21367185,-1.54501797,,,0,CDCO,1
CDCO2,"Cité des Congrès",,47.21349660,-1.54487307,,,0,CDCO,1
CDMA1,"Champ de Manoeuvre",,47.27270482,-1.50074174,,,0,CDMA,1
CDMA2,"Champ de Manoeuvre",,47.27228631,-1.49978542,,,0,CDMA,2
CEDR1,"Cèdre",,47.29944073,-1.56025341,,,0,CEDR,1
CEDR2,"Cèdre",,47.29945410,-1.55985720,,,0,CEDR,1
CELL1,"Le Cellier",,47.32388492,-1.34786995,,,0,CELL,2
CELL2,"Le Cellier",,47.32361957,-1.34771920,,,0,CELL,2
CFOI1,"Champ de Foire",,47.12424017,-1.61890717,,,0,CFOI,1
CFOI2,"Champ de Foire",,47.12461313,-1.61853879,,,0,CFOI,1
CGAU1,"Cimetière de la Gaudinière",,47.24292433,-1.58285056,,,0,CGAU,1
CGAU2,"Cimetière de la Gaudinière",,47.24310850,-1.58273180,,,0,CGAU,1
CGLA1,"Chêne Gala",,47.18315380,-1.53923829,,,0,CGLA,1
CGLA2,"Chêne Gala",,47.18385928,-1.53968569,,,0,CGLA,1
CHAB1,"Chabossière",,47.21544422,-1.68249449,,,0,CHAB,1
CHAB2,"Chabossière",,47.21536358,-1.68222404,,,0,CHAB,1
CHBE1,"Chambelles",,47.23162967,-1.53058634,,,0,CHBE,1
CHBE2,"Chambelles",,47.23205236,-1.53141026,,,0,CHBE,1
CHER1,"Cochère",,47.20269502,-1.77828605,,,0,CHER,1
CHER2,"Cochère",,47.20269502,-1.77828605,,,0,CHER,1
CHFL1,"Champ Fleuri",,47.14374039,-1.52477013,,,0,CHFL,1
CHFL2,"Champ Fleuri",,47.14407328,-1.52558617,,,0,CHFL,1
CHGN1,"Châtaigniers",,47.22164888,-1.60191584,,,0,CHGN,1
CHGN2,"Châtaigniers",,47.22173872,-1.60192246,,,0,CHGN,1
CHGN3,"Châtaigniers",,47.22206655,-1.60287205,,,0,CHGN,1
CHGN4,"Châtaigniers",,47.22215639,-1.60287866,,,0,CHGN,1
CHIN1,"La Chesnaie",,47.28174731,-1.53738987,,,0,CHIN,1
CHIN2,"La Chesnaie",,47.28165303,-1.53751539,,,0,CHIN,1
CHLI1,"Cholière",,47.25093723,-1.60671900,,,0,CHLI,1
CHLI2,"Cholière",,47.25103158,-1.60659368,,,0,CHLI,1
CHME1,"Charmes",,47.19080195,-1.46104727,,,0,CHME,2
CHME2,"Charmes",,47.19107150,-1.46106640,,,0,CHME,2
CHNI1,"Charbonnière",,47.26367965,-1.64219263,,,0,CHNI,1
CHNI2,"Charbonnière",,47.26387299,-1.64181008,,,0,CHNI,1
CHOC1,"Chocolaterie",,47.24280469,-1.52769143,,,0,CHOC,1
CHOC2,"Chocolaterie",,47.24270600,-1.52794880,,,0,CHOC,1
CHPO1,"Champonnière",,47.16400203,-1.50602626,,,0,CHPO,1
CHPO2,"Champonnière",,47.16365142,-1.50573699,,,0,CHPO,1
CHRE1,"Chalâtres",,47.23183531,-1.53787365,,,0,CHRE,1
CHRE2,"Chalâtres",,47.23108993,-1.53861300,,,0,CHRE,1
CHSS1,"Chaussée",,47.17664867,-1.52106736,,,0,CHSS,1
CHSS2,"Chaussée",,47.17724671,-1.52203508,,,0,CHSS,1
CHTE1,"Châtelets",,47.19688716,-1.54062925,,,0,CHTE,1
CHTE2,"Châtelets",,47.19725099,-1.54052347,,,0,CHTE,1
CHVE1,"Chauvais",,47.33733351,-1.57163166,,,0,CHVE,2
CHVE2,"Chauvais",,47.33672737,-1.57357462,,,0,CHVE,2
CHZY1,"Chanzy",,47.22403084,-1.54497641,,,0,CHZY,1
CHZY2,"Chanzy",,47.22356385,-1.54547135,,,0,CHZY,1
CIFA4,"CIFAM",,47.26672891,-1.48814027,,,0,CIFA,2
CIFA5,"CIFAM",,47.26671343,-1.48588991,,,0,CIFA,1
CIGL1,"Chai Gallais",,47.13687684,-1.72161486,,,0,CIGL,1
CIGL2,"Chai Gallais",,47.13687684,-1.72161486,,,0,CIGL,1
CJOS1,"Cimetière de St-Joseph-de-Porterie",,47.26852726,-1.52068599,,,0,CJOS,1
CJOS2,"Cimetière de St-Joseph-de-Porterie",,47.26813697,-1.52158403,,,0,CJOS,1
CLAM1,"Clos Ami",,47.21214757,-1.65554467,,,0,CLAM,1
CLAM2,"Clos Ami",,47.21227243,-1.65714025,,,0,CLAM,1
CLAM3,"Clos Ami",,47.21176537,-1.65617709,,,0,CLAM,2
CLBO1,"Clos Bonnet",,47.18917694,-1.56358856,,,0,CLBO,2
CLBO2,"Clos Bonnet",,47.19039015,-1.56499823,,,0,CLBO,2
CLCC1,"Centre René Gauducheau",,47.23850738,-1.63820369,,,0,CLCC,1
CLET1,"Clétras",,47.25484788,-1.51229125,,,0,CLET,2
CLET2,"Clétras",,47.25520287,-1.51244909,,,0,CLET,2
CLGE1,"Chalonges",,47.18964952,-1.47140272,,,0,CLGE,1
CLGE2,"Chalonges",,47.18916104,-1.47255701,,,0,CLGE,1
CLGE3,"Chalonges",,47.18925961,-1.47229979,,,0,CLGE,1
CLGE4,"Chalonges",,47.18979872,-1.47233816,,,0,CLGE,1
CLGE5,"Chalonges",,47.18996534,-1.47274637,,,0,CLGE,1
CLMO1,"Cimetière de La Montagne",,47.18746776,-1.68660393,,,0,CLMO,1
CLMO2,"Cimetière de La Montagne",,47.18729268,-1.68645864,,,0,CLMO,1
CLNA1,"Colonac",,47.22504038,-1.60282664,,,0,CLNA,1
CLNA2,"Colonac",,47.22412843,-1.60315611,,,0,CLNA,1
CLOT1,"Clotais",,47.19311033,-1.71834643,,,0,CLOT,1
CLOT2,"Clotais",,47.19302513,-1.71820783,,,0,CLOT,1
CLPT1,"Clépettre",,47.29697973,-1.54776171,,,0,CLPT,1
CLPT2,"Clépettre",,47.29664257,-1.54707526,,,0,CLPT,1
CLRO1,"Clos Roux",,47.19871610,-1.75088644,,,0,CLRO,1
CLRO2,"Clos Roux",,47.19812466,-1.74978398,,,0,CLRO,1
CLSE1,"Closeaux",,47.23913119,-1.62793436,,,0,CLSE,2
CLSE2,"Closeaux",,47.24013759,-1.62747996,,,0,CLSE,2
CLTT1,"Châlet",,47.23000511,-1.54408774,,,0,CLTT,1
CLTT2,"Châlet",,47.22945271,-1.54444432,,,0,CLTT,1
CLUE1,"Clouet",,47.16744204,-1.51089539,,,0,CLUE,2
CLUE2,"Clouet",,47.16710025,-1.51034257,,,0,CLUE,2
CLZE1,"Clouzeaux",,47.17931014,-1.49259465,,,0,CLZE,1
CLZE2,"Clouzeaux",,47.17939999,-1.49260107,,,0,CLZE,1
CMAR1,"Cirque - Marais",,47.21803334,-1.55723184,,,0,CMAR,1
CMAR2,"Cirque - Marais",,47.21821749,-1.55711305,,,0,CMAR,1
CMCI1,"Clémencière",,47.26953696,-1.43568045,,,0,CMCI,1
CMCI2,"Clémencière",,47.26963544,-1.43542278,,,0,CMCI,1
CMLL1,"Charmille",,47.25717693,-1.60598862,,,0,CMLL,1
CMLL2,"Charmille",,47.25708257,-1.60611395,,,0,CMLL,1
CMNE1,"Commune 1871",,47.19923040,-1.50023062,,,0,CMNE,1
CMNE2,"Commune 1871",,47.19933781,-1.49970975,,,0,CMNE,1
CMOU1,"Clos du Moulin",,47.14512195,-1.52117338,,,0,CMOU,1
CMOU2,"Clos du Moulin",,47.14520738,-1.52131155,,,0,CMOU,1
CMRA1,"Cormerais",,47.19475301,-1.62715773,,,0,CMRA,2
CMRA2,"Cormerais",,47.19474394,-1.62742134,,,0,CMRA,2
CMSY1,"Carrière Misery",,47.19987097,-1.58022598,,,0,CMSY,2
CMSY2,"Carrière Misery",,47.19998770,-1.57944161,,,0,CMSY,2
CMUS1,"Camus",,47.21913271,-1.57264675,,,0,CMUS,1
CMUS2,"Camus",,47.21921808,-1.57278519,,,0,CMUS,1
CNAV1,"Chantiers Navals",,47.20895696,-1.56727727,,,0,CNAV,1
CNAV2,"Chantiers Navals",,47.20884925,-1.56779810,,,0,CNAV,1
CNAV4,"Chantiers Navals",,47.20876834,-1.56752785,,,0,CNAV,1
CNCE1,"Chenonceau",,47.27263937,-1.43444392,,,0,CNCE,2
CNGO1,"Congo",,47.24067675,-1.60913647,,,0,CNGO,1
CNGO2,"Congo",,47.23965236,-1.61011890,,,0,CNGO,1
CNLA1,"Canal",,47.21601944,-1.47195777,,,0,CNLA,1
CNLA2,"Canal",,47.21611800,-1.47170042,,,0,CNLA,1
CNON1,"Chinon",,47.27416824,-1.42899425,,,0,CNON,2
CNON2,"Chinon",,47.27416393,-1.42912627,,,0,CNON,2
CNTR1,"Centaure",,47.16998730,-1.62704148,,,0,CNTR,1
CNTR2,"Centaure",,47.17007260,-1.62717988,,,0,CNTR,1
COAY1,"Corlay",,47.20794884,-1.64412854,,,0,COAY,1
COAY2,"Corlay",,47.20803413,-1.64426706,,,0,COAY,1
COBI1,"Corbières",,47.20163663,-1.48745260,,,0,COBI,2
COCH1,"Cochard",,47.22440993,-1.54976344,,,0,COCH,1
COCH2,"Cochard",,47.22402387,-1.55052864,,,0,COCH,1
COET1,"Les Couëts",,47.18075234,-1.58622504,,,0,COET,1
COET2,"Les Couëts",,47.18064454,-1.58674555,,,0,COET,1
COHO1,"Chohonnière",,47.26319622,-1.48603530,,,0,COHO,1
COHO2,"Chohonnière",,47.26337592,-1.48604815,,,0,COHO,1
COLI1,"Colinière",,47.23588821,-1.50828208,,,0,COLI,1
COLI2,"Colinière",,47.23560107,-1.50879037,,,0,COLI,1
COLI3,"Colinière",,47.23653034,-1.50793154,,,0,COLI,1
COMB2,"Commerce",,47.21337472,-1.55649624,,,0,COMM,1
COMC1,"Commerce",,47.21357223,-1.55598188,,,0,COMM,1
COMD7,"Commerce",,47.21250819,-1.55815154,,,0,COMM,1
COME1,"Commerce",,47.21474023,-1.55606686,,,0,COMM,1
COME2,"Commerce",,47.21429991,-1.55577046,,,0,COMM,1
COME3,"Commerce",,47.21448405,-1.55565167,,,0,COMM,1
COMF1,"Commerce",,47.21448405,-1.55565167,,,0,COMM,1
CONI1,"Corniche",,47.25261848,-1.59440839,,,0,CONI,1
CONI2,"Corniche",,47.25278917,-1.59468551,,,0,CONI,2
COQU1,"Coquelicots",,47.22255351,-1.72890825,,,0,COQU,2
COQU2,"Coquelicots",,47.22253956,-1.72930385,,,0,COQU,2
CORA1,"Conraie",,47.26093354,-1.58827243,,,0,CORA,1
CORA2,"Conraie",,47.26092905,-1.58840441,,,0,CORA,1
COST1,"Cousteau",,47.23987594,-1.51293285,,,0,COST,1
COST2,"Cousteau",,47.23978169,-1.51305831,,,0,COST,1
COTA1,"Coutancière",,47.30620126,-1.56008462,,,0,COTA,1
COUD1,"Coudray",,47.23267280,-1.54243010,,,0,COUD,1
COUD2,"Coudray",,47.23222357,-1.54239752,,,0,COUD,1
CP3R1,"Chapelles",,47.16354476,-1.53847942,,,0,CP3R,2
CP3R2,"Chapelles",,47.16521640,-1.53965688,,,0,CP3R,1
CP4L1,"Chapelle Laënnec",,47.23536751,-1.63783808,,,0,CP4L,1
CPE79,"Copernic",,47.21490855,-1.56440687,,,0,CPER,1
CPER1,"Copernic",,47.21490855,-1.56440687,,,0,CPER,1
CPER2,"Copernic",,47.21489962,-1.56467059,,,0,CPER,1
CPGT1,"Capitaine Grant",,47.26146439,-1.66716656,,,0,CPGT,1
CPGT2,"Capitaine Grant",,47.26174126,-1.66956890,,,0,CPGT,1
CPRE1,"Chaupières",,47.24317344,-1.49505175,,,0,CPRE,2
CPRE2,"Chaupières",,47.24236480,-1.49499380,,,0,CPRE,2
CQGU1,"Chat-qui-Guette",,47.19195490,-1.69738037,,,0,CQGU,1
CQGU2,"Chat-qui-Guette",,47.19196413,-1.69711679,,,0,CQGU,1
CQLU1,"Coqueluchon",,47.18383096,-1.47032832,,,0,CQLU,2
CQLU2,"Coqueluchon",,47.18410051,-1.47034749,,,0,CQLU,2
CRA99,"Clairais",,47.27521402,-1.43833070,,,0,CRAI,1
CRAI1,"Clairais",,47.27556910,-1.43848811,,,0,CRAI,1
CRBE1,"Corberie",,47.15205072,-1.52404890,,,0,CRBE,1
CRBE2,"Corberie",,47.15241454,-1.52394309,,,0,CRBE,1
CRCE1,"Courocerie",,47.25176590,-1.49937116,,,0,CRCE,1
CRCE2,"Courocerie",,47.25150513,-1.49908791,,,0,CRCE,1
CREZ1,"Château de Rezé",,47.18472858,-1.55930110,,,0,CREZ,1
CREZ2,"Château de Rezé",,47.18480505,-1.55970300,,,0,CREZ,1
CRME1,"Crémetterie",,47.21821159,-1.60761172,,,0,CRME,2
CRME2,"Crémetterie",,47.21828338,-1.60814580,,,0,CRME,1
CRNO1,"Corbon",,47.21240979,-1.46125919,,,0,CRNO,1
CRNO2,"Corbon",,47.21332134,-1.46092737,,,0,CRNO,1
CROU1,"Chemin Rouge",,47.25160798,-1.51761350,,,0,CROU,1
CROU2,"Chemin Rouge",,47.25187752,-1.51763293,,,0,CROU,1
CRPO1,"Criport",,47.15786830,-1.50360558,,,0,CRPO,2
CRPO2,"Criport",,47.15831755,-1.50363779,,,0,CRPO,2
CRQU1,"Place du Cirque",,47.21713489,-1.55716644,,,0,CRQU,1
CRQU2,"Place du Cirque",,47.21677996,-1.55700842,,,0,CRQU,1
CRQU3,"Place du Cirque",,47.21669457,-1.55687002,,,0,CRQU,1
CRQU4,"Place du Cirque",,47.21696856,-1.55675776,,,0,CRQU,1
CRRO1,"Claire Roman",,47.15444566,-1.59169260,,,0,CRRO,1
CRRO2,"Claire Roman",,47.15520038,-1.59069161,,,0,CRRO,1
CRSA1,"Croissant",,47.24055106,-1.53043801,,,0,CRSA,1
CRSA2,"Croissant",,47.24101799,-1.52994279,,,0,CRSA,1
CRTI1,"Crétinières",,47.27715351,-1.55346690,,,0,CRTI,1
CRTI2,"Crétinières",,47.27653350,-1.55315709,,,0,CRTI,1
CRVA1,"Cravate",,47.24336474,-1.58843772,,,0,CRVA,1
CRVA2,"Cravate",,47.24327939,-1.58829920,,,0,CRVA,1
CSAY1,"Chassay",,47.24506425,-1.48421005,,,0,CSAY,2
CSAY2,"Chassay",,47.24524395,-1.48422289,,,0,CSAY,1
CSAY3,"Chassay",,47.24532068,-1.48462514,,,0,CSAY,2
CSCL1,"Cimetière St-Clair",,47.21657334,-1.59228862,,,0,CSCL,2
CSCL2,"Cimetière St-Clair",,47.21679791,-1.59362705,,,0,CSCL,2
CSER1,"La Chapelle-sur-Erdre",,47.29942423,-1.55005779,,,0,CSER,1
CSER2,"La Chapelle-sur-Erdre",,47.29941978,-1.55018986,,,0,CSER,1
CSGR1,"Cassegrain",,47.18767482,-1.48751211,,,0,CSGR,2
CSGR2,"Cassegrain",,47.18787872,-1.48950839,,,0,CSGR,1
CSHB1,"Carrières",,47.20815365,-1.63819582,,,0,CSHB,1
CSHB2,"Carrières",,47.20815820,-1.63806398,,,0,CSHB,1
CSIB1,"Clos Siban",,47.21014020,-1.64587776,,,0,CSIB,1
CSIB2,"Clos Siban",,47.21021181,-1.64641182,,,0,CSIB,1
CSMP1,"Casimir Périer",,47.23150809,-1.56892329,,,0,CSMP,2
CSMP2,"Casimir Périer",,47.23124749,-1.56863981,,,0,CSMP,2
CSMP3,"Casimir Périer",,47.23197965,-1.56829658,,,0,CSMP,2
CSRI1,"Classerie",,47.16808464,-1.55875054,,,0,CSRI,1
CSRI2,"Classerie",,47.16817448,-1.55875707,,,0,CSRI,1
CSTE1,"Casterneau",,47.22714308,-1.53277404,,,0,CSTE,1
CSTE2,"Casterneau",,47.22714308,-1.53277404,,,0,CSTE,1
CSVA2,"Conservatoire",,47.20705845,-1.53277550,,,0,CSVA,1
CSVA3,"Conservatoire",,47.20704960,-1.53303919,,,0,CSVA,1
CTAR1,"Cotalard",,47.28632497,-1.53785414,,,0,CTAR,1
CTAR2,"Cotalard",,47.28614972,-1.53770908,,,0,CTAR,1
CTBO1,"Coteaux",,47.18461890,-1.67013882,,,0,CTBO,1
CTBO2,"Coteaux",,47.18437689,-1.66932799,,,0,CTBO,1
CTEU1,"Caboteurs",,47.18639013,-1.58729878,,,0,CTEU,1
CTEU2,"Caboteurs",,47.18647549,-1.58743716,,,0,CTEU,1
CTIE1,"Châtelier",,47.18466058,-1.59311716,,,0,CTIE,2
CTIE2,"Châtelier",,47.18483577,-1.59326213,,,0,CTIE,1
CTLI1,"Courteline",,47.23638838,-1.58700000,,,0,CTLI,2
CTLI2,"Courteline",,47.23657256,-1.58688127,,,0,CTLI,2
CTNS1,"Carterons",,47.21850232,-1.73904497,,,0,CTNS,1
CTNS2,"Carterons",,47.21860614,-1.73865625,,,0,CTNS,1
CTO99,"Clos Toreau",,47.19412346,-1.52906560,,,0,CTOR,2
CTOR1,"Clos Toreau",,47.19439301,-1.52908506,,,0,CTOR,1
CTOR2,"Clos Toreau",,47.19412346,-1.52906560,,,0,CTOR,1
CTRE1,"Chantrerie Grandes Ecoles",,47.28179922,-1.51701187,,,0,CTRE,1
CTRE2,"Chantrerie Grandes Ecoles",,47.28170938,-1.51700539,,,0,CTRE,1
CTRE3,"Chantrerie Grandes Ecoles",,47.28230302,-1.51810700,,,0,CTRE,1
CTRE4,"Chantrerie Grandes Ecoles",,47.28221317,-1.51810051,,,0,CTRE,1
CTYY1,"Coty",,47.24898935,-1.48806168,,,0,CTYY,1
CTYY2,"Coty",,47.24907482,-1.48820006,,,0,CTYY,1
CUGA1,"Gare de Couëron",,47.22182251,-1.72409285,,,0,CUGA,1
CUGA2,"Gare de Couëron",,47.22173268,-1.72408603,,,0,CUGA,1
CUIE1,"Chausserie",,47.14946944,-1.70421559,,,0,CUIE,1
CUIE2,"Chausserie",,47.14911471,-1.70405679,,,0,CUIE,1
CUPI1,"Coupries",,47.19177432,-1.46706173,,,0,CUPI,1
CUPI2,"Coupries",,47.19158591,-1.46731259,,,0,CUPI,1
CURI1,"Curie",,47.19048206,-1.48705207,,,0,CURI,1
CURI2,"Curie",,47.19046894,-1.48744749,,,0,CURI,1
CUVI1,"Cuvier",,47.21070555,-1.57414588,,,0,CUVI,2
CUVI2,"Cuvier",,47.21046286,-1.57333508,,,0,CUVI,2
CVBL1,"Cheveux Blancs",,47.26554693,-1.63505413,,,0,CVBL,2
CVBL2,"Cheveux Blancs",,47.26545709,-1.63504746,,,0,CVBL,2
CVDO1,"Cimetière de Vieux Doulon",,47.23849235,-1.50040266,,,0,CVDO,1
CVDO2,"Cimetière de Vieux Doulon",,47.23848357,-1.50066651,,,0,CVDO,1
CVER1,"Chapeau Verni",,47.18930187,-1.51167390,,,0,CVER,1
CVER2,"Chapeau Verni",,47.18925604,-1.51034941,,,0,CVER,1
CVER3,"Chapeau Verni",,47.18911155,-1.50928208,,,0,CVER,2
CVER4,"Chapeau Verni",,47.18912476,-1.50888667,,,0,CVER,1
CVLE1,"Chevalerie",,47.25221480,-1.54517072,,,0,CVLE,1
CVLE2,"Chevalerie",,47.25230020,-1.54530920,,,0,CVLE,2
CVNI1,"Chauvinière",,47.25148527,-1.57210222,,,0,CVNI,1
CVNI2,"Chauvinière",,47.25157511,-1.57210879,,,0,CVNI,1
CVRN1,"Cheverny",,47.24595568,-1.60489667,,,0,CVRN,1
CVRN2,"Cheverny",,47.24548843,-1.60539129,,,0,CVRN,1
CVTI1,"Convention",,47.21063914,-1.58669791,,,0,CVTI,2
CVTI2,"Convention",,47.21154656,-1.58650009,,,0,CVTI,2
CXFS1,"Croix des Fosses",,47.21322855,-1.46647211,,,0,CXFS,1
CXFS2,"Croix des Fosses",,47.21332275,-1.46634663,,,0,CXFS,1
CZIN1,"Chézine",,47.23372865,-1.59897057,,,0,CZIN,2
CZIN2,"Chézine",,47.23371514,-1.59936628,,,0,CZIN,2
DAKK1,"Danemark",,47.26097867,-1.49857702,,,0,DAKK,1
DAKK2,"Danemark",,47.26194734,-1.49652975,,,0,DAKK,1
DAKK3,"Danemark",,47.26173255,-1.49757273,,,0,DAKK,2
DALB1,"Dalby",,47.22516954,-1.52985488,,,0,DALB,1
DALB2,"Dalby",,47.22546120,-1.52921491,,,0,DALB,1
DANU1,"Danube",,47.30446031,-1.50183156,,,0,DANU,1
DANU2,"Danube",,47.30439681,-1.50103258,,,0,DANU,1
DAVU1,"Davum",,47.26502849,-1.49595688,,,0,DAVU,2
DAVU2,"Davum",,47.26474579,-1.49633352,,,0,DAVU,2
DAYA1,"Dayat",,47.20086884,-1.67426307,,,0,DAYA,1
DAYA2,"Dayat",,47.20194035,-1.67711883,,,0,DAYA,1
DCAN1,"Duchesse Anne-Chateau",,47.21630505,-1.54705966,,,0,DCAN,1
DCAN2,"Duchesse Anne-Chateau",,47.21620187,-1.54744873,,,0,DCAN,1
DCAN3,"Duchesse Anne-Chateau",,47.21630950,-1.54692779,,,0,DCAN,1
DCAN4,"Duchesse Anne-Chateau",,47.21603996,-1.54690823,,,0,DCAN,1
DCFF1,"Du Chaffault",,47.20748089,-1.58157605,,,0,DCFF,1
DCFF2,"Du Chaffault",,47.20764712,-1.58198473,,,0,DCFF,1
DEMO1,"Desmoulins",,47.23226754,-1.52230218,,,0,DEMO,1
DEMO2,"Desmoulins",,47.23347087,-1.52133117,,,0,DEMO,1
DERV1,"Dervallières",,47.22880529,-1.59807941,,,0,DERV,1
DERV2,"Dervallières",,47.22880079,-1.59821130,,,0,DERV,1
DIAN1,"Diane",,47.23966265,-1.57811502,,,0,DIAN,1
DIAN2,"Diane",,47.23966713,-1.57798310,,,0,DIAN,1
DIDE1,"Espace Diderot",,47.18444632,-1.56231912,,,0,DIDE,1
DIDE2,"Espace Diderot",,47.18442847,-1.56284627,,,0,DIDE,1
DIDE3,"Espace Diderot",,47.18451386,-1.56298460,,,0,DIDE,2
DIDE4,"Espace Diderot",,47.18379509,-1.56293224,,,0,DIDE,1
DIDE5,"Espace Diderot",,47.18449601,-1.56351175,,,0,DIDE,1
DLCR1,"Delacroix",,47.22370249,-1.58924255,,,0,DLCR,1
DLCR2,"Delacroix",,47.22360815,-1.58936784,,,0,DLCR,1
DLLE1,"Drillet",,47.23483550,-1.66623091,,,0,DLLE,1
DLLE2,"Drillet",,47.23476398,-1.66569657,,,0,DLLE,1
DLME3,"Delorme",,47.21571270,-1.56459769,,,0,DLME,1
DLME4,"Delorme",,47.21537117,-1.56404403,,,0,DLME,1
DMAI1,"Domaine",,47.17836743,-1.46941149,,,0,DMAI,1
DMAI2,"Domaine",,47.17835436,-1.46980683,,,0,DMAI,1
DMUR1,"Dumont d'Urville",,47.22587166,-1.63633918,,,0,DMUR,1
DMUR2,"Dumont d'Urville",,47.22578182,-1.63633250,,,0,DMUR,1
DNAI1,"Danais",,47.21360403,-1.58955904,,,0,DNAI,1
DNAI2,"Danais",,47.21377923,-1.58970408,,,0,DNAI,1
DOC99,"Doucet",,47.27796857,-1.63266866,,,0,DOCE,1
DOLT1,"Dolto",,47.21650999,-1.63617274,,,0,DOLT,1
DOLT2,"Dolto",,47.21641106,-1.63642978,,,0,DOLT,1
DOME1,"Doumer",,47.22226896,-1.57842860,,,0,DOME,2
DOME2,"Doumer",,47.22181526,-1.57852760,,,0,DOME,1
DOTT1,"Douettée",,47.20775964,-1.49833108,,,0,DOTT,1
DOTT2,"Douettée",,47.20773331,-1.49912218,,,0,DOTT,1
DPTE1,"Déportés",,47.19635756,-1.49183227,,,0,DPTE,1
DPTE2,"Déportés",,47.19715306,-1.49228559,,,0,DPTE,2
DRAD1,"Désirade",,47.27819851,-1.48446172,,,0,DRAD,2
DRAD2,"Désirade",,47.27766816,-1.48415913,,,0,DRAD,2
DRID1,"Druides",,47.23861884,-1.50742048,,,0,DRID,1
DRID2,"Druides",,47.23861884,-1.50742048,,,0,DRID,1
DROI1,"Droitière",,47.30821718,-1.37313692,,,0,DROI,2
DROI2,"Droitière",,47.30821718,-1.37313692,,,0,DROI,2
DSAI1,"Desaix",,47.22755156,-1.54205870,,,0,DSAI,1
DSAI2,"Desaix",,47.22624932,-1.54328641,,,0,DSAI,1
DSNE1,"Desnerie",,47.27795724,-1.54029128,,,0,DSNE,2
DSNE2,"Desnerie",,47.27793949,-1.54081936,,,0,DSNE,2
DUKA1,"Dukas",,47.23522868,-1.60251920,,,0,DUKA,1
DUKA2,"Dukas",,47.23488283,-1.60209701,,,0,DUKA,2
DUNA1,"Dunant",,47.24391081,-1.52155536,,,0,DUNA,1
DUNA2,"Dunant",,47.24391964,-1.52129149,,,0,DUNA,1
DUTR1,"Duguay Trouin",,47.22430126,-1.61652245,,,0,DUTR,1
DUTR2,"Duguay Trouin",,47.22429674,-1.61665433,,,0,DUTR,1
EBCA1,"Embarcadère",,47.19408468,-1.64653306,,,0,EBCA,1
EBCA2,"Embarcadère",,47.19344212,-1.64688166,,,0,EBCA,1
ECBU1,"Écobuts",,47.19393516,-1.50777884,,,0,ECBU,1
ECBU2,"Écobuts",,47.19393956,-1.50764703,,,0,ECBU,1
ECHO1,"Échoppes",,47.14399692,-1.68558360,,,0,ECHO,1
ECHO2,"Échoppes",,47.14391628,-1.68531350,,,0,ECHO,1
ECHO3,"Échoppes",,47.14306629,-1.68643787,,,0,ECHO,1
ECHO4,"Échoppes",,47.14297645,-1.68643112,,,0,ECHO,1
ECOS1,"Écosse",,47.21510965,-1.52635200,,,0,ECOS,1
ECOS2,"Écosse",,47.21520392,-1.52622663,,,0,ECOS,1
ECSU1,"Ecole Centrale-Audencia",,47.24877590,-1.55100544,,,0,ECSU,1
ECSU2,"Ecole Centrale-Audencia",,47.24849302,-1.55138168,,,0,ECSU,1
ECSU3,"Ecole Centrale-Audencia",,47.24857841,-1.55152016,,,0,ECSU,2
ECSU4,"École Centrale-Audencia",,47.24895114,-1.55115045,,,0,ECSU,2
ECSU5,"École Centrale-Audencia",,47.24812474,-1.55161943,,,0,ECSU,1
ECSU6,"École Centrale-Audencia",,47.24766661,-1.55185065,,,0,ECSU,1
ECTE1,"Enchanterie",,47.23041759,-1.52375537,,,0,ECTE,2
ECTE2,"Enchanterie",,47.23061054,-1.52337263,,,0,ECTE,2
EDIP1,"Edith Piaf",,47.22810873,-1.62367951,,,0,EDIP,1
EDIP2,"Edith Piaf",,47.22827482,-1.62408849,,,0,EDIP,1
EDNA1,"Édit de Nantes",,47.21440626,-1.56860019,,,0,EDNA,1
EDNA2,"Édit de Nantes",,47.21450057,-1.56847489,,,0,EDNA,1
EDRE1,"Erdreau",,47.29105998,-1.50126590,,,0,EDRE,2
EDRE2,"Erdreau",,47.29105120,-1.50153001,,,0,EDRE,2
EGAN1,"Eglantine",,47.23518001,-1.58810150,,,0,EGAN,1
EGAN2,"Eglantine",,47.23508118,-1.58835873,,,0,EGAN,1
EGLI1,"Egalité",,47.20922862,-1.58844494,,,0,EGLI,1
EGLI2,"Egalité",,47.20939483,-1.58885365,,,0,EGLI,1
EGLI3,"Égalité",,47.20936786,-1.58700122,,,0,EGLI,1
EGLI4,"Égalité",,47.20837059,-1.58719244,,,0,EGLI,2
EGLI6,"Égalité",,47.20915674,-1.58791096,,,0,EGLI,2
EINS1,"Einstein",,47.26412601,-1.57117427,,,0,EINS,1
EINS2,"Einstein",,47.26413048,-1.57104228,,,0,EINS,1
EMBE1,"Embellie",,47.26472122,-1.51869135,,,0,EMBE,1
EMBE2,"Embellie",,47.26554307,-1.51835371,,,0,EMBE,1
ENCO1,"Ennerie - Corbon",,47.14197580,-1.70470652,,,0,ENCO,2
ENCO2,"Ennerie - Corbon",,47.14187209,-1.70509475,,,0,ENCO,2
ENRI1,"Ennerie",,47.14026156,-1.70734952,,,0,ENRI,2
EPEL1,"Écoles",,47.19778763,-1.75927383,,,0,EPEL,1
EPEL2,"Écoles",,47.19752281,-1.75912140,,,0,EPEL,1
EPIN1,"Épinais",,47.13632633,-1.61055959,,,0,EPIN,2
EPIN2,"Épinais",,47.13614664,-1.61054635,,,0,EPIN,2
EPYY1,"Epinay",,47.29234637,-1.48692971,,,0,EPYY,2
EPYY2,"Epinay",,47.29225652,-1.48692328,,,0,EPYY,1
EQPE1,"Équipement",,47.22381394,-1.57536864,,,0,EQPE,1
EQPE2,"Équipement",,47.22389035,-1.57577086,,,0,EQPE,1
ERAC1,"Erdre Active",,47.28314713,-1.54397669,,,0,ERAC,2
ERAC2,"Erdre Active",,47.28314269,-1.54410872,,,0,ERAC,2
ERDI1,"Éraudière",,47.24175708,-1.53475725,,,0,ERDI,1
ERDI2,"Éraudière",,47.24157296,-1.53487617,,,0,ERDI,1
ERDI3,"Éraudière",,47.24264226,-1.53521809,,,0,ERDI,2
ERDI4,"Éraudière",,47.24301493,-1.53484831,,,0,ERDI,2
ESCA1,"Escall",,47.19941211,-1.50288652,,,0,ESCA,1
ESCA2,"Escall",,47.19939893,-1.50328200,,,0,ESCA,1
ESOR1,"Écoles",,47.14544898,-1.52753353,,,0,ESOR,1
ESOR2,"Écoles",,47.14666265,-1.52894123,,,0,ESOR,1
ESUE1,"Eugène Sue",,47.23328862,-1.59602902,,,0,ESUE,2
ESUE2,"Eugène Sue",,47.23328862,-1.59602902,,,0,ESUE,2
EUCA1,"Europe",,47.26016090,-1.50420697,,,0,EUCA,2
EUCA2,"Europe",,47.26120195,-1.50269421,,,0,EUCA,2
EUVE1,"Europe",,47.17300614,-1.47629459,,,0,EUVE,1
EUVE2,"Europe",,47.17308726,-1.47656452,,,0,EUVE,1
EVET1,"École Vétérinaire",,47.29007265,-1.52277102,,,0,EVET,1
EVET2,"École Vétérinaire",,47.29085918,-1.52348969,,,0,EVET,1
EVRD1,"Evardière",,47.29879071,-1.56616373,,,0,EVRD,2
EVRD2,"Evardière",,47.29823324,-1.56400472,,,0,EVRD,2
FACU1,"Facultés",,47.24584828,-1.55502498,,,0,FACU,1
FACU2,"Facultés",,47.24565523,-1.55540772,,,0,FACU,1
FACU3,"Facultés",,47.24673337,-1.55548619,,,0,FACU,1
FACU4,"Facultés",,47.24682767,-1.55536079,,,0,FACU,2
FADI1,"Fardière",,47.19850886,-1.60695252,,,0,FADI,1
FADI2,"Fardière",,47.19820813,-1.60521242,,,0,FADI,1
FALI1,"Fallières",,47.22494189,-1.57928530,,,0,FALI,1
FALI2,"Fallières",,47.22493741,-1.57941718,,,0,FALI,1
FANE1,"Faneurs",,47.21375066,-1.70259309,,,0,FANE,1
FANE2,"Faneurs",,47.21367931,-1.70205892,,,0,FANE,1
FATA1,"Fantaisie",,47.25352966,-1.57555877,,,0,FATA,2
FATA2,"Fantaisie",,47.25365531,-1.57450970,,,0,FATA,2
FAUV1,"Fauvelière",,47.28299968,-1.50531922,,,0,FAUV,2
FAUV2,"Fauvelière",,47.28283317,-1.50491020,,,0,FAUV,2
FBLA2,"Fresche Blanc",,47.25312647,-1.55820038,,,0,FBLA,2
FBLA3,"Fresche Blanc",,47.25290149,-1.55686119,,,0,FBLA,1
FDDR2,"Fac de Droit",,47.24378547,-1.55209745,,,0,FDDR,1
FDDR3,"Fac de Droit",,47.24378992,-1.55196551,,,0,FDDR,1
FDLE1,"Fac de Lettres",,47.24550588,-1.55182578,,,0,FDLE,1
FDLE2,"Fac de Lettres",,47.24541603,-1.55181925,,,0,FDLE,1
FERI1,"Ferrière",,47.24335125,-1.59147869,,,0,FERI,1
FERI2,"Ferrière",,47.24307723,-1.59159082,,,0,FERI,1
FERI3,"Ferrière",,47.24435750,-1.59102357,,,0,FERI,1
FERI4,"Ferrière",,47.24445633,-1.59076630,,,0,FERI,1
FFAU1,"Félix Faure",,47.22733500,-1.56980855,,,0,FFAU,1
FFAU2,"Félix Faure",,47.22698903,-1.56938663,,,0,FFAU,1
FFAU3,"Félix Faure",,47.22714190,-1.57019110,,,0,FFAU,1
FFAU4,"Félix Faure",,47.22777976,-1.56997325,,,0,FFAU,1
FGRI1,"Fief Guérin",,47.14396105,-1.66076091,,,0,FGRI,2
FGRI2,"Fief Guérin",,47.14388036,-1.66049085,,,0,FGRI,2
FLAN1,"Flandre",,47.28564602,-1.54733483,,,0,FLAN,1
FLAN2,"Flandre",,47.28575364,-1.54681321,,,0,FLAN,1
FLEU1,"Fleuriaye",,47.29850645,-1.49941791,,,0,FLEU,1
FLEU2,"Fleuriaye",,47.29832236,-1.49953708,,,0,FLEU,2
FLEU3,"Fleuriaye",,47.29928873,-1.50026843,,,0,FLEU,2
FLEU4,"Fleuriaye",,47.29893373,-1.50011054,,,0,FLEU,1
FLRI1,"Floride",,47.21348186,-1.60369399,,,0,FLRI,1
FLRI2,"Floride",,47.21347735,-1.60382584,,,0,FLRI,1
FLTR1,"Flora Tristan",,47.17633201,-1.54389596,,,0,FLTR,2
FLTR2,"Flora Tristan",,47.17579736,-1.54372512,,,0,FLTR,1
FLUR1,"Fleurs",,47.21583272,-1.71768908,,,0,FLUR,1
FLUR2,"Fleurs",,47.21582344,-1.71795278,,,0,FLUR,1
FMIT1,"François Mitterrand",,47.22203468,-1.63790515,,,0,FMIT,1
FMIT2,"François Mitterrand",,47.22210178,-1.63857119,,,0,FMIT,1
FMIT4,"François Mitterrand",,47.22194029,-1.63803035,,,0,FMIT,1
FMIT5,"François Mitterrand",,47.22208814,-1.63896681,,,0,FMIT,1
FMIT6,"François Mitterrand",,47.22208814,-1.63896681,,,0,FMIT,1
FMIT7,"François Mitterrand",,47.22218253,-1.63884161,,,0,FMIT,1
FNLL1,"Fresnel",,47.24286067,-1.52333113,,,0,FNLL,2
FNLL2,"Fresnel",,47.24304037,-1.52334410,,,0,FNLL,1
FNSO1,"Fenaison",,47.26970664,-1.59248947,,,0,FNSO,1
FOC78,"Foch-Cathédrale",,47.21971125,-1.55021528,,,0,FOCH,1
FOCH1,"Foch-Cathédrale",,47.21934742,-1.55032104,,,0,FOCH,1
FOCH2,"Foch-Cathédrale",,47.21925758,-1.55031451,,,0,FOCH,1
FOCH3,"Foch-Cathédrale",,47.21925313,-1.55044639,,,0,FOCH,1
FOCH4,"Foch-Cathédrale",,47.21879945,-1.55054562,,,0,FOCH,1
FOCH5,"Foch-Cathédrale",,47.21979221,-1.55048556,,,0,FOCH,1
FOND1,"Fonderies",,47.20641203,-1.54396268,,,0,FOND,1
FOND2,"Fonderies",,47.20642091,-1.54369900,,,0,FOND,1
FORU2,"Forum d'Orvault",,47.25443054,-1.61517856,,,0,FORU,2
FORU3,"Forum d'Orvault",,47.25407117,-1.61515199,,,0,FORU,1
FOTA1,"Fontaine",,47.20535781,-1.48930440,,,0,FOTA,1
FOTA2,"Fontaine",,47.20554189,-1.48918540,,,0,FOTA,1
FOUL1,"Foulquier",,47.30973659,-1.54604116,,,0,FOUL,1
FOUL2,"Foulquier",,47.30981755,-1.54631189,,,0,FOUL,1
FRAC1,"Frachon",,47.21895013,-1.62022527,,,0,FRAC,1
FRAC2,"Frachon",,47.21911170,-1.62076603,,,0,FRAC,1
FRBA1,"Frébaudière",,47.27223426,-1.62655239,,,0,FRBA,1
FRBA2,"Frébaudière",,47.27246750,-1.62762836,,,0,FRBA,1
FRCH1,"Fraîches",,47.17455019,-1.48948053,,,0,FRCH,1
FRCH2,"Fraîches",,47.17487456,-1.49056037,,,0,FRCH,1
FRET1,"Forêt",,47.24434768,-1.57541602,,,0,FRET,1
FRET2,"Forêt",,47.24425336,-1.57554138,,,0,FRET,1
FRGA1,"Frégate",,47.23525876,-1.47570796,,,0,FRGA,2
FRGA2,"Frégate",,47.23524567,-1.47610372,,,0,FRGA,2
FRII1,"François II",,47.21839050,-1.68324467,,,0,FRII,1
FRII2,"François II",,47.21823841,-1.68244001,,,0,FRII,1
FRKL1,"Franklin",,47.22581434,-1.61967530,,,0,FRKL,1
FRKL2,"Franklin",,47.22599403,-1.61968859,,,0,FRKL,1
FRMO1,"Frémoire",,47.15242571,-1.47496169,,,0,FRMO,2
FRMO2,"Frémoire",,47.15328061,-1.47634280,,,0,FRMO,2
FRNE1,"Frênes",,47.25323850,-1.48757200,,,0,FRNE,1
FRNE2,"Frênes",,47.25323850,-1.48757200,,,0,FRNE,1
FRON3,"Frêne Rond",,47.19035074,-1.49642323,,,0,FRON,1
FRON4,"Frêne Rond",,47.19026089,-1.49641680,,,0,FRON,1
FTAB1,"Félix Tableau",,47.18748742,-1.54695065,,,0,FTAB,1
FTAB2,"Félix Tableau",,47.18740202,-1.54681233,,,0,FTAB,1
FTAB3,"Félix Tableau",,47.18801317,-1.54738515,,,0,FTAB,1
FTAB4,"Félix Tableau",,47.18831382,-1.54648212,,,0,FTAB,1
FTDO1,"Fructidor",,47.24010857,-1.55963273,,,0,FTDO,2
FTDO2,"Fructidor",,47.23952046,-1.56104460,,,0,FTDO,1
GADO1,"Gandonnière",,47.30703916,-1.54054855,,,0,GADO,2
GADO2,"Gandonnière",,47.30712900,-1.54055507,,,0,GADO,2
GAGN1,"Gagnerie",,47.23223083,-1.50722581,,,0,GAGN,1
GAGN2,"Gagnerie",,47.23222643,-1.50735772,,,0,GAGN,1
GAIL1,"Garillère",,47.19251060,-1.52075715,,,0,GAIL,1
GAIL2,"Garillère",,47.19240751,-1.52114610,,,0,GAIL,1
GALH1,"Galheur",,47.16597257,-1.58118031,,,0,GALH,2
GALH2,"Galheur",,47.16673615,-1.57991548,,,0,GALH,1
GAMB1,"Gambetta",,47.22352508,-1.53859380,,,0,GAMB,1
GAMB2,"Gambetta",,47.22352065,-1.53872569,,,0,GAMB,2
GARO1,"Garotterie",,47.12620991,-1.62710292,,,0,GARO,2
GARO2,"Garotterie",,47.12620991,-1.62710292,,,0,GARO,2
GATI1,"Gâtine",,47.21341590,-1.66053039,,,0,GATI,1
GATI2,"Gâtine",,47.21324994,-1.66012141,,,0,GATI,1
GAUT1,"Gautellerie",,47.17742295,-1.60196482,,,0,GAUT,1
GAUT2,"Gautellerie",,47.17741844,-1.60209659,,,0,GAUT,1
GBLO1,"Grand Blottereau",,47.22975836,-1.51114692,,,0,GBLO,1
GBLO2,"Grand Blottereau",,47.22975396,-1.51127882,,,0,GBLO,1
GBNI1,"Guiblinière",,47.29231724,-1.52028568,,,0,GBNI,1
GBNI2,"Guiblinière",,47.29240267,-1.52042422,,,0,GBNI,1
GBTA1,"Grande-Bretagne",,47.26220345,-1.50236925,,,0,GBTA,2
GBTA2,"Grande-Bretagne",,47.26230208,-1.50211173,,,0,GBTA,2
GCAR1,"Grand Carcouët",,47.23150986,-1.59272469,,,0,GCAR,1
GCAR2,"Grand Carcouët",,47.23150536,-1.59285659,,,0,GCAR,1
GCAR3,"Grand Carcouët",,47.23109211,-1.59176840,,,0,GCAR,1
GCAR4,"Grand Carcouët",,47.23134815,-1.59218390,,,0,GCAR,1
GCEN1,"Grande Censive",,47.25246754,-1.54836375,,,0,GCEN,1
GCEN2,"Grande Censive",,47.25214465,-1.54992762,,,0,GCEN,1
GCEN3,"Grande Censive",,47.25134494,-1.54960493,,,0,GCEN,1
GCH98,"Gachet",,47.29327618,-1.52392909,,,0,GCHE,2
GCHE1,"Gachet",,47.29336602,-1.52393558,,,0,GCHE,1
GCHE2,"Gachet",,47.29264284,-1.52401570,,,0,GCHE,1
GCSO1,"Glacisol",,47.25168445,-1.50452395,,,0,GCSO,1
GCSO2,"Glacisol",,47.25150915,-1.50437908,,,0,GCSO,1
GDCH2,"Gare de Chantenay",,47.19778236,-1.59394851,,,0,GDCH,1
GDCH3,"Gare de Chantenay",,47.19788570,-1.59355966,,,0,GDCH,1
GDCH4,"Gare de Chantenay",,47.19779586,-1.59355306,,,0,GDCH,1
GDCH5,"Gare de Chantenay",,47.19783622,-1.59500965,,,0,GDCH,1
GDEN1,"Goldens",,47.16175622,-1.50045104,,,0,GDEN,1
GDEN2,"Goldens",,47.16196226,-1.49967350,,,0,GDEN,1
GDNN1,"Gendronnerie",,47.12732846,-1.63906358,,,0,GDNN,1
GDNN2,"Gendronnerie",,47.12702253,-1.64009670,,,0,GDNN,1
GDOU1,"Grande Ouche",,47.18135389,-1.57913541,,,0,GDOU,1
GDOU2,"Grande Ouche",,47.18133597,-1.57966252,,,0,GDOU,1
GDPI1,"Grande Pièce",,47.19896414,-1.51091509,,,0,GDPI,2
GDPI2,"Grande Pièce",,47.19907160,-1.51039424,,,0,GDPI,1
GDRE1,"Guindré",,47.23959313,-1.53750999,,,0,GDRE,1
GDRE2,"Guindré",,47.23921601,-1.53801165,,,0,GDRE,1
GELL1,"Grande Noëlle",,47.16241793,-1.50221513,,,0,GELL,1
GELL2,"Grande Noëlle",,47.16232808,-1.50220869,,,0,GELL,1
GERA1,"Géraudière",,47.26173999,-1.56716305,,,0,GERA,2
GERA2,"Géraudière",,47.26173999,-1.56716305,,,0,GERA,1
GERA3,"Géraudière",,47.26266076,-1.56656877,,,0,GERA,2
GERA4,"Géraudière",,47.26289456,-1.56764428,,,0,GERA,2
GERA5,"Géraudière",,47.26221600,-1.56640399,,,0,GERA,2
GESV1,"Gesvrine",,47.27009140,-1.55189430,,,0,GESV,1
GESV2,"Gesvrine",,47.26981296,-1.55213869,,,0,GESV,1
GEVR1,"Gesvres",,47.26390010,-1.54853315,,,0,GEVR,1
GEVR2,"Gesvres",,47.26371152,-1.54878406,,,0,GEVR,1
GGAU1,"Gergaudière",,47.28965609,-1.58588183,,,0,GGAU,2
GGAU2,"Gergaudière",,47.28984026,-1.58576298,,,0,GGAU,2
GGNO1,"Grignon",,47.21638639,-1.46630003,,,0,GGNO,1
GGNO2,"Grignon",,47.21647189,-1.46643829,,,0,GGNO,1
GGUI1,"Gauguin",,47.16669088,-1.55468713,,,0,GGUI,1
GGUI2,"Gauguin",,47.16692925,-1.55562893,,,0,GGUI,1
GIAR1,"Gilarderie",,47.18606472,-1.68293107,,,0,GIAR,1
GIAR2,"Gilarderie",,47.18589884,-1.68252224,,,0,GIAR,1
GIBR1,"Gibraye",,47.20513022,-1.51505887,,,0,GIBR,1
GIBR2,"Gibraye",,47.20495660,-1.51755738,,,0,GIBR,1
GIND1,"Gare d'Indre",,47.20496928,-1.66254284,,,0,GIND,1
GIND2,"Gare d'Indre",,47.20521592,-1.66322213,,,0,GIND,1
GIQU1,"Gicquelière",,47.25807410,-1.45841813,,,0,GIQU,1
GIQU2,"Gicquelière",,47.25814223,-1.45908439,,,0,GIQU,1
GLAU1,"Grillaud",,47.21972216,-1.58181162,,,0,GLAU,1
GLAU2,"Grillaud",,47.22026571,-1.58171923,,,0,GLAU,1
GLDE1,"Grande Lande",,47.19246766,-1.49776396,,,0,GLDE,1
GLDE2,"Grande Lande",,47.19229235,-1.49761927,,,0,GLDE,1
GLEI1,"Grolerie",,47.17268334,-1.47244142,,,0,GLEI,1
GLEI2,"Grolerie",,47.17277319,-1.47244781,,,0,GLEI,1
GLIE1,"Gilière",,47.29942955,-1.55257368,,,0,GLIE,2
GLIE2,"Gilière",,47.29922316,-1.55335302,,,0,GLIE,1
GLNE1,"Galarne",,47.20814414,-1.52994633,,,0,GLNE,1
GLNE2,"Galarne",,47.20814857,-1.52981448,,,0,GLNE,1
GLOU1,"Grange au Loup",,47.26383873,-1.51545241,,,0,GLOU,2
GLOU2,"Grange au Loup",,47.26365022,-1.51570343,,,0,GLOU,2
GMAR1,"Gare Maritime",,47.20705322,-1.57295377,,,0,GMAR,1
GMAR2,"Gare Maritime",,47.20703980,-1.57334929,,,0,GMAR,1
GMAR3,"Gare Maritime",,47.20688247,-1.57267696,,,0,GMAR,1
GMAR9,"Gare Maritime",,47.20523842,-1.57334983,,,0,GMAR,1
GMOL1,"Guy Mollet",,47.24904183,-1.55380245,,,0,GMOL,1
GMOL2,"Guy Mollet",,47.24921262,-1.55407942,,,0,GMOL,1
GMOL3,"Guy Mollet",,47.24928020,-1.55474569,,,0,GMOL,2
GNRA1,"Greneraie",,47.19973652,-1.53356759,,,0,GNRA,1
GNRA2,"Greneraie",,47.19955683,-1.53355459,,,0,GNRA,1
GNRA3,"Greneraie",,47.19962010,-1.53435205,,,0,GNRA,1
GNRA4,"Greneraie",,47.19927843,-1.53379875,,,0,GNRA,1
GNRA5,"Greneraie",,47.19948912,-1.53288896,,,0,GNRA,1
GNRA6,"Greneraie",,47.19930942,-1.53287597,,,0,GNRA,1
GNRA7,"Greneraie",,47.19910759,-1.53352211,,,0,GNRA,1
GOBI2,"Gobinière",,47.24963128,-1.58691364,,,0,GOBI,1
GOBI3,"Gobinière",,47.24935726,-1.58702581,,,0,GOBI,1
GOLF1,"Golf",,47.23649968,-1.60486096,,,0,GOLF,2
GOLF2,"Golf",,47.23624819,-1.60431345,,,0,GOLF,2
GONI1,"Gournière",,47.26846441,-1.54939421,,,0,GONI,1
GONI2,"Gournière",,47.26828472,-1.54938114,,,0,GONI,1
GPOR1,"Grand Portail",,47.20225108,-1.52304507,,,0,GPOR,1
GPOR2,"Grand Portail",,47.20142037,-1.52364591,,,0,GPOR,1
GPRO1,"Gare de Pont Rousseau",,47.19291920,-1.54879820,,,0,GPRO,1
GPRO2,"Gare de Pont Rousseau",,47.19308111,-1.54933848,,,0,GPRO,1
GRAM1,"Grammoire",,47.18357282,-1.47268780,,,0,GRAM,2
GRAM2,"Grammoire",,47.18364959,-1.47308957,,,0,GRAM,2
GRCH1,"Grand Chemin",,47.19735309,-1.78408692,,,0,GRCH,1
GRCH2,"Grand Chemin",,47.19727269,-1.78381640,,,0,GRCH,1
GRET1,"Gare de l'Etat",,47.20397352,-1.56017356,,,0,GRET,1
GRET2,"Gare de l'Etat",,47.20470120,-1.55996222,,,0,GRET,1
GRIM1,"Grimm",,47.21663608,-1.64556813,,,0,GRIM,1
GRIM2,"Grimm",,47.21606058,-1.64658287,,,0,GRIM,1
GRIM3,"Grimm",,47.21609703,-1.64552801,,,0,GRIM,1
GRIM4,"Grimm",,47.21687826,-1.64637935,,,0,GRIM,2
GRLI1,"Graslin",,47.21277904,-1.56345851,,,0,GRLI,1
GRLI2,"Graslin",,47.21269365,-1.56332010,,,0,GRLI,1
GRMA1,"Grimau",,47.22776755,-1.65446267,,,0,GRMA,2
GRMA2,"Grimau",,47.22829746,-1.65476667,,,0,GRMA,2
GRPO1,"Gripots",,47.19239539,-1.49181313,,,0,GRPO,1
GRPO2,"Gripots",,47.19248962,-1.49168774,,,0,GRPO,1
GRTE1,"Garotterie",,47.22499944,-1.60665786,,,0,GRTE,1
GRTE2,"Garotterie",,47.22436152,-1.60687526,,,0,GRTE,2
GRVI1,"Guérivières",,47.20535928,-1.46749872,,,0,GRVI,1
GRVI2,"Guérivières",,47.20509408,-1.46734771,,,0,GRVI,1
GRZI1,"Grezillières",,47.21426080,-1.47883802,,,0,GRZI,1
GRZI2,"Grezillières",,47.21436811,-1.47831696,,,0,GRZI,1
GSAN1,"George Sand",,47.16575765,-1.54497861,,,0,GSAN,1
GSAN2,"George Sand",,47.16582084,-1.54577558,,,0,GSAN,1
GSEN1,"Grasse Noue",,47.28024494,-1.58188223,,,0,GSEN,2
GSEN2,"Grasse Noue",,47.28024494,-1.58188223,,,0,GSEN,2
GSIN1,"Grassinière",,47.16583171,-1.50787434,,,0,GSIN,1
GSIN2,"Grassinière",,47.16582731,-1.50800609,,,0,GSIN,1
GSNO1,"Gare Nord",,47.21782151,-1.54214643,,,0,GSNO,1
GSNO2,"Gare Nord",,47.21780375,-1.54267391,,,0,GSNO,1
GSS98,"Gare Sud",,47.21529692,-1.54222777,,,0,GSSU,1
GSSU3,"Gare Sud",,47.21521152,-1.54208939,,,0,GSSU,1
GSSU4,"Gare Sud",,47.21538233,-1.54236615,,,0,GSSU,1
GSSU5,"Gare Sud",,47.21547662,-1.54224080,,,0,GSSU,1
GSSU6,"Gare Sud",,47.21529692,-1.54222777,,,0,GSSU,1
GTAE1,"Grootaers",,47.23961818,-1.58472423,,,0,GTAE,1
GTAE2,"Grootaers",,47.23933968,-1.58496831,,,0,GTAE,1
GTLA1,"Garettes-Landreau",,47.27317170,-1.63072434,,,0,GTLA,1
GTLA2,"Garettes-Landreau",,47.27309094,-1.63045367,,,0,GTLA,1
GTVE1,"Gaston Veil",,47.20997839,-1.55572043,,,0,GTVE,1
GTVE2,"Gaston Veil",,47.21016254,-1.55560165,,,0,GTVE,1
GULO1,"Guilloterie",,47.17236984,-1.55721314,,,0,GULO,1
GULO2,"Guilloterie",,47.17254507,-1.55735797,,,0,GULO,1
GURO1,"Gustave Roch",,47.20364299,-1.55129487,,,0,GURO,2
GURO2,"Gustave Roch",,47.20406998,-1.55198669,,,0,GURO,2
GURO3,"Gustave Roch",,47.20362075,-1.55195405,,,0,GURO,1
GVNO1,"Gare de Vertou Nord",,47.18707788,-1.47835377,,,0,GVNO,1
GVNO2,"Gare de Vertou Nord",,47.18707351,-1.47848557,,,0,GVNO,1
GVSU1,"Gare de Vertou Sud",,47.18569263,-1.47666976,,,0,GVSU,1
GVSU2,"Gare de Vertou Sud",,47.18587233,-1.47668256,,,0,GVSU,1
HAL99,"Haluchère - Batignolles",,47.24917204,-1.52312542,,,0,HALU,1
HALA1,"Haluchère - Batignolles",,47.24884798,-1.52204389,,,0,HALU,1
HALA2,"Haluchère - Batignolles",,47.24910869,-1.52232724,,,0,HALU,1
HALA4,"Haluchère - Batignolles",,47.24945041,-1.52288098,,,0,HALU,1
HALD1,"Haluchère - Batignolles",,47.24936057,-1.52287449,,,0,HALU,1
HALE2,"Haluchère - Batignolles",,47.24892458,-1.52244622,,,0,HALU,1
HALF1,"Haluchère - Batignolles",,47.24924422,-1.52365971,,,0,HALU,1
HALF2,"Haluchère - Batignolles",,47.24917204,-1.52312542,,,0,HALU,1
HALF3,"Haluchère - Batignolles",,47.24890692,-1.52297402,,,0,HALU,1
HALG1,"Haluchère - Batignolles",,47.24830007,-1.52226888,,,0,HALU,1
HARO1,"Harouys",,47.21689462,-1.56693114,,,0,HARO,1
HARO2,"Harouys",,47.21689462,-1.56693114,,,0,HARO,1
HAUB1,"Haubans",,47.21462644,-1.53001825,,,0,HAUB,1
HAUB2,"Haubans",,47.21445117,-1.52987340,,,0,HAUB,1
HAVE1,"Halvêque",,47.25746288,-1.52028452,,,0,HAVE,1
HAVE2,"Halvêque",,47.25709026,-1.52065450,,,0,HAVE,1
HAVE3,"Halvêque",,47.25949687,-1.51871145,,,0,HAVE,2
HAVE4,"Halvêque",,47.25884147,-1.51945794,,,0,HAVE,1
HBA99,"Hangar à Bananes",,47.20029693,-1.57298880,,,0,HBAN,1
HBAN1,"Hangar à Bananes",,47.20038230,-1.57312719,,,0,HBAN,1
HBAN2,"Hangar à Bananes",,47.20029693,-1.57298880,,,0,HBAN,2
HBDE1,"Halbarderie",,47.26828686,-1.43810608,,,0,HBDE,1
HBDE2,"Halbarderie",,47.26857801,-1.43746510,,,0,HBDE,1
HBLI1,"Hôpital Bellier",,47.22130324,-1.52428746,,,0,HBLI,1
HBLI2,"Hôpital Bellier",,47.22101603,-1.52479552,,,0,HBLI,1
HBRA1,"Herbray",,47.15030582,-1.47098227,,,0,HBRA,2
HBRA2,"Herbray",,47.15048552,-1.47099504,,,0,HBRA,2
HCOU1,"Hauts de Couëron",,47.24056965,-1.66970210,,,0,HCOU,2
HDIE1,"Haudrière",,47.15464647,-1.46772599,,,0,HDIE,1
HDIE2,"Haudrière",,47.15447112,-1.46758151,,,0,HDIE,1
HERM1,"Hermeland",,47.23058116,-1.61725107,,,0,HERM,1
HERM2,"Hermeland",,47.23067553,-1.61712581,,,0,HERM,2
HERM3,"Hermeland",,47.22978615,-1.61679561,,,0,HERM,1
HERM4,"Hermeland",,47.22996584,-1.61680890,,,0,HERM,1
HFLE1,"Hameau Fleuri",,47.25105981,-1.58992860,,,0,HFLE,1
HFLE2,"Hameau Fleuri",,47.25097895,-1.58965810,,,0,HFLE,1
HFVE1,"Haute Forêt",,47.16831427,-1.46565950,,,0,HFVE,1
HFVE2,"Haute Forêt",,47.16805341,-1.46537686,,,0,HFVE,1
HILE1,"Haute Ile",,47.19395457,-1.55548008,,,0,HILE,2
HILE2,"Haute Ile",,47.19473647,-1.55632975,,,0,HILE,2
HIND1,"Haute Indre",,47.19541271,-1.64980340,,,0,HIND,2
HIND2,"Haute Indre",,47.19442446,-1.64972979,,,0,HIND,2
HIPP1,"Hippodrome",,47.24705518,-1.56728130,,,0,HIPP,1
HIPP2,"Hippodrome",,47.24767069,-1.56772304,,,0,HIPP,1
HLAN1,"Haute Lande",,47.15477271,-1.52345288,,,0,HLAN,1
HLAN2,"Haute Lande",,47.15395523,-1.52365804,,,0,HLAN,1
HMLL1,"Houmaille",,47.18901359,-1.58696260,,,0,HMLL,1
HMLL2,"Houmaille",,47.18910344,-1.58696919,,,0,HMLL,1
HODI1,"Hôtel Dieu",,47.21212500,-1.55349737,,,0,HODI,1
HODI2,"Hôtel Dieu",,47.21151388,-1.55292423,,,0,HODI,1
HODI3,"Hôtel Dieu",,47.21259648,-1.55287075,,,0,HODI,1
HODI4,"Hôtel Dieu",,47.21241234,-1.55298954,,,0,HODI,1
HODI5,"Hotel Dieu",,47.21207075,-1.55243599,,,0,HODI,2
HOGR1,"Hongrie",,47.21590797,-1.52403029,,,0,HOGR,1
HOGR2,"Hongrie",,47.21610533,-1.52351579,,,0,HOGR,1
HOSE1,"Housseau",,47.28107173,-1.49829865,,,0,HOSE,1
HOSE2,"Housseau",,47.28079780,-1.49841134,,,0,HOSE,1
HPLA1,"Hôpital Laënnec",,47.23688456,-1.64086027,,,0,HPLA,1
HREG1,"Hôtel de Région",,47.21034330,-1.52614007,,,0,HREG,1
HREG2,"Hôtel de Région",,47.21034772,-1.52600821,,,0,HREG,2
HRLL1,"Hérelle",,47.20136272,-1.58667861,,,0,HRLL,1
HRLL2,"Hérelle",,47.20163226,-1.58669837,,,0,HRLL,1
HVCQ1,"Mairie de Carquefou",,47.29889879,-1.49031126,,,0,HVCQ,1
HVCQ2,"Mairie de Carquefou",,47.29885499,-1.49163200,,,0,HVCQ,2
HVCQ3,"Mairie de Carquefou",,47.29889441,-1.49044333,,,0,HVCQ,1
HVNA1,"Hôtel de Ville",,47.21794718,-1.55444950,,,0,HVNA,1
HVNA2,"Hôtel de Ville",,47.21777194,-1.55430456,,,0,HVNA,1
ICAM1,"ICAM",,47.27365801,-1.50186879,,,0,ICAM,2
ICAM2,"ICAM",,47.27374785,-1.50187525,,,0,ICAM,2
IDFR1,"Île de France",,47.16941272,-1.46785057,,,0,IDFR,1
IDLO1,"Îles de Loire",,47.21072691,-1.49034916,,,0,IDLO,1
IDLO2,"Îles de Loire",,47.21028204,-1.49018517,,,0,IDLO,1
IDNA1,"Ile de Nantes",,47.20622127,-1.53892663,,,0,IDNA,1
IDNA2,"Ile de Nantes",,47.20595616,-1.53877527,,,0,IDNA,1
IMPR1,"Imprimeurs",,47.23866470,-1.67008841,,,0,IMPR,2
IMPR2,"Imprimeurs",,47.23866011,-1.67022032,,,0,IMPR,2
INLA1,"Internat Laënnec",,47.23500246,-1.64058805,,,0,INLA,2
INLA2,"Internat Laënnec",,47.23507865,-1.64099045,,,0,INLA,2
INRE1,"Indre",,47.20113476,-1.66661760,,,0,INRE,1
INRE2,"Indre",,47.20116504,-1.66833797,,,0,INRE,1
IRLA1,"Irlandais",,47.22327438,-1.60705954,,,0,IRLA,1
IRLA2,"Irlandais",,47.22310372,-1.60678254,,,0,IRLA,1
IROI1,"Iroise",,47.24836583,-1.53642616,,,0,IROI,1
IROI2,"Iroise",,47.24818171,-1.53654509,,,0,IROI,1
ISLE1,"Islettes",,47.26333978,-1.47625538,,,0,ISLE,1
ISLE2,"Islettes",,47.26333542,-1.47638737,,,0,ISLE,1
IUTH1,"IUT",,47.29786834,-1.50506472,,,0,IUTH,1
IUTH2,"IUT",,47.29789031,-1.50440437,,,0,IUTH,1
JAL98,"Jalière",,47.26424401,-1.59685112,,,0,JALI,1
JALI1,"Jalière",,47.26423951,-1.59698311,,,0,JALI,1
JALI2,"Jalière",,47.26414967,-1.59697649,,,0,JALI,1
JAME1,"Jamet",,47.21000952,-1.60251303,,,0,JAME,1
JAME2,"Jamet",,47.21007683,-1.60317888,,,0,JAME,1
JAME3,"Jamet",,47.21022496,-1.60411503,,,0,JAME,2
JANA1,"Jaunais",,47.17604452,-1.53370427,,,0,JANA,1
JANA2,"Jaunais",,47.17595024,-1.53382955,,,0,JANA,1
JAPY1,"Japy",,47.25936667,-1.51182285,,,0,JAPY,1
JAPY2,"Japy",,47.25995418,-1.51040991,,,0,JAPY,1
JARI1,"Jarriais",,47.21293011,-1.71826229,,,0,JARI,1
JARI2,"Jarriais",,47.21290228,-1.71905335,,,0,JARI,1
JAUR1,"Jacqueline Auriol",,47.27114264,-1.47178394,,,0,JAUR,1
JAUR2,"Jacqueline Auriol",,47.27142526,-1.47140712,,,0,JAUR,1
JBAR1,"Jean Bart",,47.19921042,-1.67532819,,,0,JBAR,2
JBAR2,"Jean Bart",,47.19962748,-1.67628456,,,0,JBAR,1
JBNA1,"Jeanne Bernard",,47.23525187,-1.59128052,,,0,JBNA,1
JBNA2,"Jeanne Bernard",,47.23590325,-1.59066715,,,0,JBNA,1
JCAR1,"Jacques Cartier",,47.22389061,-1.63632425,,,0,JCAR,1
JCAR2,"Jacques Cartier",,47.22397590,-1.63646280,,,0,JCAR,1
JCDM1,"Jacques Demy",,47.15814541,-1.68281651,,,0,JCDM,1
JCDM2,"Jacques Demy",,47.15885493,-1.68313388,,,0,JCDM,1
JCOU1,"Joncours",,47.22000538,-1.58672381,,,0,JCOU,1
JCOU2,"Joncours",,47.22074209,-1.58624903,,,0,JCOU,1
JDGA1,"Jardins de Gaïa",,47.15731344,-1.67826421,,,0,JDGA,1
JDGA2,"Jardins de Gaïa",,47.15749772,-1.67814597,,,0,JDGA,1
JEVV1,"Jean V",,47.21197546,-1.56591135,,,0,JEVV,2
JEVV2,"Jean V",,47.21193472,-1.56445440,,,0,JEVV,2
JFER1,"Jules Ferry",,47.25071836,-1.48752402,,,0,JFER,2
JFER2,"Jules Ferry",,47.25080821,-1.48753045,,,0,JFER,2
JFRA1,"Jean Fraix",,47.18612433,-1.54196353,,,0,JFRA,1
JFRA2,"Jean Fraix",,47.18647484,-1.54225315,,,0,JFRA,1
JGUE1,"Jaguère",,47.17552139,-1.56787742,,,0,JGUE,1
JGUE2,"Jaguère",,47.17552586,-1.56774566,,,0,JGUE,1
JHDI1,"Jahardières",,47.12539960,-1.64274770,,,0,JHDI,2
JHDI2,"Jahardières",,47.12549855,-1.64249110,,,0,JHDI,2
JJCE1,"Jean Jaurès",,47.30132429,-1.54979885,,,0,JJCE,2
JJCE2,"Jean Jaurès",,47.30123444,-1.54979231,,,0,JJCE,2
JJNA1,"Jean Jaurès",,47.21873052,-1.56058748,,,0,JJNA,1
JJNA2,"Jean Jaurès",,47.21838897,-1.56003382,,,0,JJNA,1
JLIE1,"Joliverie",,47.18994470,-1.51938315,,,0,JLIE,1
JLVE1,"Joliverie",,47.18965588,-1.51724841,,,0,JLVE,1
JLVE2,"Joliverie",,47.18957485,-1.51697834,,,0,JLVE,1
JLVE3,"Joliverie",,47.18955722,-1.51750555,,,0,JLVE,2
JLVE4,"Joliverie",,47.18967793,-1.51658939,,,0,JLVE,1
JLVE5,"Joliverie",,47.18994470,-1.51938315,,,0,JLVE,1
JLVE6,"Joliverie",,47.18985485,-1.51937668,,,0,JLVE,1
JMAC1,"Jean Macé",,47.19948051,-1.58905149,,,0,JMAC,1
JMAC2,"Jean Macé",,47.20055415,-1.58926240,,,0,JMAC,1
JMLI1,"Jean Moulin",,47.20712579,-1.59992166,,,0,JMLI,1
JMLI2,"Jean Moulin",,47.20674389,-1.60055442,,,0,JMLI,1
JMLI3,"Jean Moulin",,47.20713930,-1.59952615,,,0,JMLI,1
JMLI4,"Jean Moulin",,47.20730548,-1.59993488,,,0,JMLI,1
JMON1,"Jean Monnet",,47.16625637,-1.46524928,,,0,JMON,2
JNAI1,"Jaunaie",,47.21919091,-1.72719837,,,0,JNAI,2
JNAI2,"Jaunaie",,47.21964009,-1.72723249,,,0,JNAI,2
JNAI3,"Jaunaie",,47.21898334,-1.72797586,,,0,JNAI,1
JNAI4,"Jaunaie",,47.21889815,-1.72783718,,,0,JNAI,1
JNIG1,"Jean Ingres",,47.22220639,-1.59613974,,,0,JNIG,1
JNIG2,"Jean Ingres",,47.22236358,-1.59681234,,,0,JNIG,1
JNLI1,"Jonelière",,47.25164252,-1.54076407,,,0,JNLI,2
JOTE1,"Jouetterie",,47.13147138,-1.66246897,,,0,JOTE,2
JOTE2,"Jouetterie",,47.13181702,-1.66289073,,,0,JOTE,2
JPER1,"Jean Perrin",,47.18125199,-1.56089755,,,0,JPER,1
JPER2,"Jean Perrin",,47.18125645,-1.56076577,,,0,JPER,1
JPTR1,"Jupiter",,47.28436801,-1.45578573,,,0,JPTR,1
JPTR2,"Jupiter",,47.28463756,-1.45580486,,,0,JPTR,1
JROS1,"Jean Rostand",,47.24614530,-1.59406475,,,0,JROS,1
JROS2,"Jean Rostand",,47.24579942,-1.59364253,,,0,JROS,1
JTIC1,"Justice",,47.20948167,-1.63102461,,,0,JTIC,2
JTIC2,"Justice",,47.20946350,-1.63155198,,,0,JTIC,2
JUIV1,"Juiverie",,47.21068766,-1.62476931,,,0,JUIV,2
JUIV2,"Juiverie",,47.21086282,-1.62491446,,,0,JUIV,2
JUME1,"Jumelière",,47.29430114,-1.48773150,,,0,JUME,2
JUME2,"Jumelière",,47.29457943,-1.48748666,,,0,JUME,2
JVAL1,"Jules Vallès",,47.17324888,-1.57114591,,,0,JVAL,1
JVAL2,"Jules Vallès",,47.17343751,-1.57089550,,,0,JVAL,1
JVNA1,"Jules Verne",,47.24874169,-1.51714235,,,0,JVNA,1
JVNA2,"Jules Verne",,47.24882713,-1.51728077,,,0,JVNA,1
JVRA1,"Janvraie",,47.19994542,-1.61234453,,,0,JVRA,1
JVRA2,"Janvraie",,47.19952783,-1.61138865,,,0,JVRA,1
KERE1,"Keren",,47.24477516,-1.53338866,,,0,KERE,1
KERE2,"Keren",,47.24440692,-1.53362652,,,0,KERE,1
KOEN1,"Koenig",,47.19812540,-1.61551398,,,0,KOEN,1
KOEN2,"Koenig",,47.19812540,-1.61551398,,,0,KOEN,1
KOUF1,"Koufra",,47.25011904,-1.52980732,,,0,KOUF,1
KOUF2,"Koufra",,47.24939142,-1.53001925,,,0,KOUF,1
KOUF3,"Koufra",,47.25034433,-1.53114633,,,0,KOUF,1
KOUF4,"Koufra",,47.25019119,-1.53034163,,,0,KOUF,1
LABE1,"Lac de Beaulieu",,47.21939729,-1.69310375,,,0,LABE,1
LABE2,"Lac de Beaulieu",,47.21933051,-1.69243768,,,0,LABE,1
LACH1,"L'Arche",,47.21290905,-1.70861048,,,0,LACH,2
LACH2,"L'Arche",,47.21282847,-1.70834000,,,0,LACH,2
LADO1,"Ladoumègue",,47.29614184,-1.48653946,,,0,LADO,2
LADO2,"Ladoumègue",,47.29586793,-1.48665224,,,0,LADO,2
LAGE1,"Largeau",,47.19556749,-1.51014238,,,0,LAGE,2
LAGE2,"Largeau",,47.19500639,-1.51076272,,,0,LAGE,2
LAGE3,"Largeau",,47.19545563,-1.51079501,,,0,LAGE,1
LAGE4,"Largeau",,47.19503280,-1.50997182,,,0,LAGE,2
LAHA1,"La Haie",,47.26094875,-1.47502649,,,0,LAHA,1
LAHA2,"La Haie",,47.26130379,-1.47518410,,,0,LAHA,1
LAIL1,"Les Ailes",,47.17021722,-1.57554737,,,0,LAIL,2
LAIL2,"Les Ailes",,47.17116491,-1.57416373,,,0,LAIL,1
LALL1,"Lallié",,47.22817710,-1.54488064,,,0,LALL,1
LALL2,"Lallié",,47.22668625,-1.54635903,,,0,LALL,1
LAMA1,"Lamartine",,47.21649651,-1.57866714,,,0,LAMA,1
LAMA2,"Lamartine",,47.21648755,-1.57893087,,,0,LAMA,1
LAN99,"Launay",,47.26485647,-1.63156260,,,0,LANA,2
LANA1,"Launay",,47.26546719,-1.63213722,,,0,LANA,1
LANA2,"Launay",,47.26555703,-1.63214389,,,0,LANA,1
LAUR1,"Lauriers",,47.20461859,-1.60475948,,,0,LAUR,1
LAUR2,"Lauriers",,47.20487008,-1.60530667,,,0,LAUR,1
LAXX1,"La Croix",,47.16527571,-1.48670499,,,0,LAXX,1
LAXX2,"La Croix",,47.16527134,-1.48683673,,,0,LAXX,1
LBAU1,"Les Bauches",,47.26336174,-1.67736468,,,0,LBAU,1
LBAU2,"Les Bauches",,47.26327649,-1.67722597,,,0,LBAU,1
LBER1,"Lindbergh",,47.15458912,-1.59804107,,,0,LBER,2
LBER2,"Lindbergh",,47.15478231,-1.59765914,,,0,LBER,2
LBOS1,"La Brosse",,47.33298939,-1.56959138,,,0,LBOS,2
LBOS2,"La Brosse",,47.33307029,-1.56986226,,,0,LBOS,2
LBPI1,"L'Ebaupin",,47.17161474,-1.51000653,,,0,LBPI,1
LBPI2,"L'Ebaupin",,47.17161914,-1.50987477,,,0,LBPI,1
LCAR1,"Le Cardo",,47.26169261,-1.58449134,,,0,LCAR,1
LCAR2,"Le Cardo",,47.26198457,-1.58385123,,,0,LCAR,1
LCAR3,"Le Cardo",,47.26160277,-1.58448475,,,0,LCAR,1
LCAR4,"Le Cardo",,47.26170158,-1.58422739,,,0,LCAR,1
LCAR5,"Le Cardo",,47.26187678,-1.58437255,,,0,LCAR,1
LCAR6,"Le Cardo",,47.26187678,-1.58437255,,,0,LCAR,1
LCBU1,"Le Corbusier",,47.19008987,-1.56854374,,,0,LCBU,1
LCBU2,"Le Corbusier",,47.19017524,-1.56868209,,,0,LCBU,2
LCEE1,"La Carrée",,47.16849749,-1.54385650,,,0,LCEE,1
LCEE2,"La Carrée",,47.16834000,-1.54318474,,,0,LCEE,1
LCEE3,"La Carrée",,47.16889240,-1.54282855,,,0,LCEE,1
LCEE4,"La Carrée",,47.16870383,-1.54307903,,,0,LCEE,1
LCLE1,"La Coulée",,47.26013301,-1.57471905,,,0,LCLE,1
LCLE2,"La Coulée",,47.25949515,-1.57493697,,,0,LCLE,1
LCNE1,"Le Chêne",,47.16526021,-1.48445890,,,0,LCNE,1
LCNE2,"Le Chêne",,47.16526896,-1.48419540,,,0,LCNE,1
LCOG1,"La Cogne",,47.28757621,-1.55687309,,,0,LCOG,1
LCOG2,"La Cogne",,47.28683964,-1.55734888,,,0,LCOG,2
LCSE1,"La Close",,47.24083446,-1.57277848,,,0,LCSE,1
LCSE2,"La Close",,47.24170606,-1.57363572,,,0,LCSE,1
LCTE1,"La Côte",,47.28214172,-1.56044768,,,0,LCTE,1
LCTE2,"La Côte",,47.28213726,-1.56057971,,,0,LCTE,1
LDAS1,"Landas",,47.16933769,-1.51076745,,,0,LDAS,2
LDAS2,"Landas",,47.16877217,-1.51151923,,,0,LDAS,2
LDRE1,"Landreau",,47.23247930,-1.51597058,,,0,LDRE,1
LDRE2,"Landreau",,47.23211110,-1.51620851,,,0,LDRE,1
LDRE3,"Landreau",,47.23158083,-1.51590587,,,0,LDRE,1
LDRE4,"Landreau",,47.23157642,-1.51603777,,,0,LDRE,1
LDSS1,"Landas",,47.17436501,-1.55947162,,,0,LDSS,1
LDSS2,"Landas",,47.17471102,-1.55989306,,,0,LDSS,1
LECH2,"Lechat",,47.20408023,-1.58093056,,,0,LECH,1
LECH3,"Lechat",,47.20353220,-1.58115476,,,0,LECH,1
LEGU1,"Leygues",,47.20334285,-1.54149346,,,0,LEGU,1
LEGU2,"Leygues",,47.20323969,-1.54188245,,,0,LEGU,1
LEVO1,"Levoyer",,47.19443993,-1.58101777,,,0,LEVO,1
LEVO2,"Levoyer",,47.19387396,-1.58176916,,,0,LEVO,1
LFAU1,"Les Faulx",,47.15741367,-1.52258688,,,0,LFAU,1
LFAU2,"Les Faulx",,47.15722956,-1.52270565,,,0,LFAU,1
LFER1,"La Ferme",,47.26427645,-1.67955048,,,0,LFER,1
LFER2,"La Ferme",,47.26424888,-1.68034232,,,0,LFER,1
LFLE1,"Laurier Fleuri",,47.18742039,-1.48432323,,,0,LFLE,1
LFLE2,"Laurier Fleuri",,47.18758260,-1.48486326,,,0,LFLE,1
LFLE3,"Laurier Fleuri",,47.18790462,-1.48330089,,,0,LFLE,1
LFLE4,"Laurier Fleuri",,47.18834076,-1.48372835,,,0,LFLE,1
LFOR1,"La Forêt",,47.15032034,-1.63839344,,,0,LFOR,2
LFOR2,"La Forêt",,47.14947537,-1.63938699,,,0,LFOR,2
LFVR1,"Lefeuvre",,47.26668083,-1.49501688,,,0,LFVR,1
LFVR2,"Lefeuvre",,47.26686052,-1.49502977,,,0,LFVR,1
LGAR1,"La Garde",,47.25533492,-1.50849013,,,0,LGAR,2
LGAR2,"La Garde",,47.25576216,-1.50918227,,,0,LGAR,1
LGOF1,"Le Goffic",,47.22999305,-1.56312702,,,0,LGOF,1
LGOF2,"Le Goffic",,47.23086918,-1.56385203,,,0,LGOF,1
LGRI1,"La Grille",,47.25092822,-1.48119010,,,0,LGRI,1
LGRI2,"La Grille",,47.25099185,-1.48198826,,,0,LGRI,1
LGTH1,"Lagathu",,47.18036290,-1.53652635,,,0,LGTH,1
LGTH2,"Lagathu",,47.18106396,-1.53710547,,,0,LGTH,1
LHAC1,"La Hache",,47.26231761,-1.49893768,,,0,LHAC,2
LHAC2,"La Hache",,47.26213352,-1.49905677,,,0,LHAC,1
LHE99,"La Herdrie",,47.19784468,-1.45229748,,,0,LHER,2
LHER1,"La Herdrie",,47.19778397,-1.45414308,,,0,LHER,2
LHIE1,"La Haie",,47.28995651,-1.54235336,,,0,LHIE,2
LHIE2,"La Haie",,47.29013176,-1.54249845,,,0,LHIE,2
LHLE1,"Le Halleray",,47.26984144,-1.45660738,,,0,LHLE,1
LHOU1,"La Houssais",,47.17428702,-1.55378624,,,0,LHOU,1
LHOU2,"La Houssais",,47.17368480,-1.55294998,,,0,LHOU,2
LHPI1,"L'Hopitau",,47.27199148,-1.55163557,,,0,LHPI,1
LHPI2,"L'Hopitau",,47.27226101,-1.55165518,,,0,LHPI,1
LIBE1,"Libération",,47.17755964,-1.67885779,,,0,LIBE,2
LIBE2,"Libération",,47.17728552,-1.67896934,,,0,LIBE,2
LILA1,"Lilas",,47.13776565,-1.46890324,,,0,LILA,1
LILA2,"Lilas",,47.13760772,-1.46823208,,,0,LILA,1
LION1,"Lionnière",,47.21820393,-1.69631901,,,0,LION,1
LION2,"Lionnière",,47.21866696,-1.69595730,,,0,LION,1
LIPP1,"Lippmann",,47.23834028,-1.52115348,,,0,LIPP,2
LIPP2,"Lippmann",,47.23890585,-1.52040083,,,0,LIPP,1
LITT1,"Littré",,47.21771868,-1.58245805,,,0,LITT,1
LITT2,"Littré",,47.21780852,-1.58246463,,,0,LITT,1
LJOS1,"Léon Jost",,47.23629112,-1.56332179,,,0,LJOS,2
LJOS2,"Léon Jost",,47.23583744,-1.56342095,,,0,LJOS,2
LLGR1,"Léo Lagrange",,47.29727857,-1.55493247,,,0,LLGR,1
LLGR2,"Léo Lagrange",,47.29699568,-1.55530903,,,0,LLGR,1
LLIO1,"Les Lions",,47.24961074,-1.61389637,,,0,LLIO,1
LLIO2,"Les Lions",,47.24982601,-1.61549961,,,0,LLIO,1
LLMO1,"Le Clémois",,47.13738336,-1.72257729,,,0,LLMO,2
LLMO2,"Le Clémois",,47.13729817,-1.72243883,,,0,LLMO,2
LLOR1,"La Lorie",,47.23524557,-1.65700442,,,0,LLOR,2
LLOR2,"La Lorie",,47.23507960,-1.65659530,,,0,LLOR,2
LMAR1,"La Marche",,47.18110831,-1.65970344,,,0,LMAR,1
LMAR2,"La Marche",,47.18067739,-1.65914283,,,0,LMAR,1
LMBR1,"Lambert",,47.17089014,-1.53967137,,,0,LMBR,1
LMBR2,"Lambert",,47.17136155,-1.53904511,,,0,LMBR,1
LME98,"La Martinière",,47.20633168,-1.78491058,,,0,LMEE,1
LMIC1,"Louise Michel",,47.21945940,-1.61325620,,,0,LMIC,1
LMIC2,"Louise Michel",,47.21936503,-1.61338144,,,0,LMIC,1
LMNE1,"Lemoine",,47.23547339,-1.54752596,,,0,LMNE,1
LMNE2,"Lemoine",,47.23623659,-1.54625901,,,0,LMNE,2
LMNE3,"Lemoine",,47.23532924,-1.54645761,,,0,LMNE,1
LMRI1,"Lamoricière",,47.21445630,-1.57243725,,,0,LMRI,1
LMRI2,"Lamoricière",,47.21454167,-1.57257567,,,0,LMRI,1
LMTA1,"La Montagne",,47.18879466,-1.68987486,,,0,LMTA,1
LMTA2,"La Montagne",,47.18845833,-1.68918890,,,0,LMTA,1
LNAI1,"Le Nain",,47.22654547,-1.60095420,,,0,LNAI,1
LNAI2,"Le Nain",,47.22710255,-1.60046633,,,0,LNAI,1
LNOU1,"La Noue",,47.14038786,-1.60769065,,,0,LNOU,1
LNOU2,"La Noue",,47.14112467,-1.60721686,,,0,LNOU,1
LNTT1,"Linot",,47.26547109,-1.52589009,,,0,LNTT,1
LNTT2,"Linot",,47.26537241,-1.52614758,,,0,LNTT,1
LOIR1,"Loire",,47.24831869,-1.48655882,,,0,LOIR,1
LOIR2,"Loire",,47.24849839,-1.48657166,,,0,LOIR,1
LOMB1,"Lombarderie",,47.23349494,-1.55544842,,,0,LOMB,1
LOMB2,"Lombarderie",,47.23322986,-1.55529689,,,0,LOMB,1
LONG1,"Longchamp",,47.23509895,-1.58254153,,,0,LONG,1
LONG2,"Longchamp",,47.23484287,-1.58212605,,,0,LONG,1
LPBA1,"Bac du Pellerin",,47.20289715,-1.75490668,,,0,LPBA,1
LPEL1,"Le Pellerin",,47.20121540,-1.75913969,,,0,LPEL,1
LPEL2,"Le Pellerin",,47.20066234,-1.75949387,,,0,LPEL,1
LPLE1,"La Plée",,47.19441632,-1.46341777,,,0,LPLE,1
LPLE2,"La Plée",,47.19409604,-1.46220589,,,0,LPLE,1
LPLE3,"La Plée",,47.19313230,-1.46411936,,,0,LPLE,1
LPLE4,"La Plée",,47.19318013,-1.46266938,,,0,LPLE,2
LPME1,"La Plume",,47.19491281,-1.50547068,,,0,LPME,1
LPME2,"La Plume",,47.19492160,-1.50520704,,,0,LPME,1
LRAY1,"Le Gray 1",,47.28422067,-1.58680640,,,0,LRAY,2
LRAY2,"Le Gray 1",,47.28368611,-1.58663479,,,0,LRAY,2
LRCH1,"La Roche",,47.21651614,-1.51931543,,,0,LRCH,1
LRCH2,"La Roche",,47.21682980,-1.51801616,,,0,LRCH,1
LRHE1,"Les Roches",,47.26357449,-1.57946936,,,0,LRHE,2
LRHE2,"Les Roches",,47.26318375,-1.58036688,,,0,LRHE,2
LRHE3,"Les Roches",,47.26373177,-1.58014242,,,0,LRHE,1
LRNE1,"Lourneau",,47.20016401,-1.48840453,,,0,LRNE,1
LRNE2,"Lourneau",,47.20025824,-1.48827912,,,0,LRNE,1
LRNE3,"Lourneau",,47.19952631,-1.48862323,,,0,LRNE,2
LRNE4,"Lourneau",,47.19952631,-1.48862323,,,0,LRNE,2
LRYA1,"Le Gray 2",,47.28331767,-1.58422529,,,0,LRYA,1
LRYA2,"Le Gray 2",,47.28332216,-1.58409327,,,0,LRYA,1
LSAL1,"La Salle",,47.21431111,-1.68915135,,,0,LSAL,1
LSAL2,"La Salle",,47.21451382,-1.68850562,,,0,LSAL,1
LSLL1,"Les Salles",,47.25027033,-1.53603503,,,0,LSLL,2
LSLL2,"Les Salles",,47.25036017,-1.53604154,,,0,LSLL,2
LSOU1,"La Source",,47.30567326,-1.55170423,,,0,LSOU,1
LSOU2,"La Source",,47.30558341,-1.55169769,,,0,LSOU,1
LSYY1,"Léon Say",,47.22960347,-1.56931311,,,0,LSYY,2
LSYY2,"Léon Say",,47.22905546,-1.56953754,,,0,LSYY,2
LTOU1,"Le Tour",,47.15160805,-1.68945617,,,0,LTOU,1
LTOU2,"Le Tour",,47.15189600,-1.68894964,,,0,LTOU,1
LUNI1,"Lieu Unique",,47.21561738,-1.54608443,,,0,LUNI,1
LUNI2,"Lieu Unique",,47.21582373,-1.54530628,,,0,LUNI,1
LYBR1,"Lycée Brottier",,47.15986113,-1.67753078,,,0,LYBR,1
LYBR2,"Lycée Brottier",,47.16066510,-1.67772311,,,0,LYBR,1
LYCQ1,"Lycée de Carquefou",,47.27939100,-1.49195803,,,0,LYCQ,1
LYOR1,"Lycée d'Orbigny",,47.15437423,-1.67989256,,,0,LYOR,1
LYOR2,"Lycée d'Orbigny",,47.15427060,-1.68028093,,,0,LYOR,1
LYOR3,"Lycée d'Orbigny",,47.15575651,-1.68158083,,,0,LYOR,1
LYPE1,"Lycée Appert",,47.25177199,-1.61127815,,,0,LYPE,1
LYPE2,"Lycée Appert",,47.25107132,-1.61069729,,,0,LYPE,1
LYRI1,"Lycée Rieffel",,47.25537342,-1.64276506,,,0,LYRI,1
LYRI2,"Lycée Rieffel",,47.25547237,-1.64250784,,,0,LYRI,1
LZCA1,"Lusançay",,47.20267876,-1.58241386,,,0,LZCA,1
LZCA2,"Lusançay",,47.20276412,-1.58255227,,,0,LZCA,1
MAAR1,"Maillardière",,47.27403732,-1.63436175,,,0,MAAR,1
MAAR2,"Maillardière",,47.27396111,-1.63395907,,,0,MAAR,1
MACH1,"MIN",,47.20157737,-1.55378787,,,0,MACH,1
MACH2,"MIN",,47.20166722,-1.55379440,,,0,MACH,1
MADO1,"Mandon",,47.16084032,-1.47107096,,,0,MADO,1
MADO2,"Mandon",,47.16048962,-1.47078194,,,0,MADO,1
MAGA1,"Gare de Mauves",,47.29318500,-1.38969773,,,0,MAGA,1
MAGA2,"Gare de Mauves",,47.29318500,-1.38969773,,,0,MAGA,2
MAI81,"8 Mai",,47.18950147,-1.55132471,,,0,MAI8,1
MAI82,"8 Mai",,47.18921858,-1.55170053,,,0,MAI8,1
MAI83,"8 Mai",,47.18886365,-1.55154262,,,0,MAI8,1
MAI84,"8 Mai",,47.18903889,-1.55168747,,,0,MAI8,1
MAI85,"8 Mai",,47.18896684,-1.55115375,,,0,MAI8,1
MAI86,"8 Mai",,47.18924083,-1.55104153,,,0,MAI8,1
MALL1,"Mail",,47.26905318,-1.61162839,,,0,MALL,1
MALL2,"Mail",,47.26905770,-1.61149640,,,0,MALL,1
MAMT1,"8 Mai",,47.17967648,-1.67756336,,,0,MAMT,2
MAMT2,"8 Mai",,47.17930794,-1.67779995,,,0,MAMT,2
MARR1,"Maison d'Arrêt",,47.26640432,-1.50333251,,,0,MARR,1
MARR2,"Maison d'Arrêt",,47.26695219,-1.50310725,,,0,MARR,1
MASS1,"Massigné",,47.29887798,-1.57954203,,,0,MASS,2
MASS2,"Massigné",,47.29887798,-1.57954203,,,0,MASS,2
MATI1,"Matière",,47.27639977,-1.44886845,,,0,MATI,1
MATI2,"Matière",,47.27639977,-1.44886845,,,0,MATI,1
MAUC1,"Centre de Mauves",,47.29745553,-1.39409930,,,0,MAUC,1
MAUC2,"Centre de Mauves",,47.29677512,-1.39286040,,,0,MAUC,1
MAZE1,"Mazères",,47.31371579,-1.35047871,,,0,MAZE,2
MAZE2,"Mazères",,47.31362172,-1.35060463,,,0,MAZE,2
MBCH1,"Maison Blanche",,47.22128017,-1.60479723,,,0,MBCH,1
MBCH2,"Maison Blanche",,47.22164405,-1.60469183,,,0,MBCH,1
MBLA1,"Mont Blanc",,47.17674040,-1.55581380,,,0,MBLA,1
MBLA2,"Mont Blanc",,47.17576990,-1.55521489,,,0,MBLA,1
MBOU1,"Mairie de Bouguenais",,47.17899206,-1.61925355,,,0,MBOU,1
MBOU2,"Mairie de Bouguenais",,47.17901016,-1.61872647,,,0,MBOU,1
MBRU1,"Moulin Brûlé",,47.25963010,-1.65512166,,,0,MBRU,1
MBRU2,"Moulin Brûlé",,47.25937885,-1.65457368,,,0,MBRU,1
MBSE1,"Moulin Boisseau",,47.28838631,-1.48413143,,,0,MBSE,1
MBSE2,"Moulin Boisseau",,47.28748346,-1.48419923,,,0,MBSE,1
MCAS1,"Moulin Cassé",,47.25627992,-1.46913780,,,0,MCAS,1
MCAS2,"Moulin Cassé",,47.25666109,-1.46850352,,,0,MCAS,1
MCCO1,"Marché Commun",,47.25967252,-1.49993852,,,0,MCCO,1
MCCO2,"Marché Commun",,47.26040008,-1.49972615,,,0,MCCO,1
MCHA1,"Mairie de Chantenay",,47.20636707,-1.58783853,,,0,MCHA,1
MCHA2,"Mairie de Chantenay",,47.20718914,-1.58750231,,,0,MCHA,1
MCHA3,"Mairie de Chantenay",,47.20689716,-1.58814175,,,0,MCHA,1
MCOU1,"Mairie de Couëron",,47.21225494,-1.72720030,,,0,MCOU,1
MCOU2,"Mairie de Couëron",,47.21216975,-1.72706163,,,0,MCOU,1
MCUR1,"Madame Curie",,47.18912957,-1.55433651,,,0,MCUR,1
MCUR2,"Madame Curie",,47.18917934,-1.55552923,,,0,MCUR,1
MDAR1,"Maison des Arts",,47.21111642,-1.61753102,,,0,MDAR,1
MDAR2,"Maison des Arts",,47.21192952,-1.61745893,,,0,MDAR,1
MDAR3,"Maison des Arts",,47.21109379,-1.61819026,,,0,MDAR,1
MDEL1,"Mandel",,47.20259073,-1.53707786,,,0,MDEL,1
MDEL2,"Mandel",,47.20249645,-1.53720319,,,0,MDEL,1
MDLA1,"Moulin des Landes",,47.26208697,-1.48145788,,,0,MDLA,1
MDLA2,"Moulin des Landes",,47.26208697,-1.48145788,,,0,MDLA,1
MDNE1,"Madeleine",,47.27579884,-1.48349616,,,0,MDNE,1
MDNE2,"Madeleine",,47.27561477,-1.48361533,,,0,MDNE,1
MDOU1,"Mairie de Doulon",,47.22699143,-1.51848401,,,0,MDOU,1
MDOU2,"Mairie de Doulon",,47.22680291,-1.51873485,,,0,MDOU,1
MDOU3,"Mairie de Doulon",,47.22707245,-1.51875427,,,0,MDOU,1
MDOU4,"Mairie de Doulon",,47.22658792,-1.51977705,,,0,MDOU,1
MDPO1,"Moulin de Porterie",,47.27583068,-1.51234680,,,0,MDPO,1
MDPO2,"Moulin de Porterie",,47.27583508,-1.51221479,,,0,MDPO,1
MDPO3,"Moulin de Porterie",,47.27561575,-1.51338998,,,0,MDPO,1
MDPO4,"Moulin de Porterie",,47.27552590,-1.51338351,,,0,MDPO,1
MDRE1,"Madoire",,47.26505572,-1.63885482,,,0,MDRE,1
MDRE2,"Madoire",,47.26508756,-1.63793097,,,0,MDRE,1
MDSI1,"Mondésir",,47.21791469,-1.56872410,,,0,MDSI,1
MDSI2,"Mondésir",,47.21773053,-1.56884285,,,0,MDSI,1
MDTH1,"Médiathèque",,47.21116565,-1.56056518,,,0,MDTH,1
MDTH2,"Médiathèque",,47.21105350,-1.56121790,,,0,MDTH,1
MDTH4,"Médiathèque",,47.21115673,-1.56082889,,,0,MDTH,2
MEDI1,"Méditerranée",,47.27106552,-1.48501031,,,0,MEDI,2
MEDI2,"Méditerranée",,47.27032049,-1.48575094,,,0,MEDI,2
MELI1,"Méliès",,47.18149783,-1.55629181,,,0,MELI,1
MELI2,"Méliès",,47.18150229,-1.55616003,,,0,MELI,1
META1,"Métairie",,47.21395599,-1.69930369,,,0,META,1
META2,"Métairie",,47.21380863,-1.69836721,,,0,META,1
MGAL1,"Marie Galante",,47.26417032,-1.45104526,,,0,MGAL,1
MGAL2,"Marie Galante",,47.26256713,-1.44775658,,,0,MGAL,2
MGCH1,"Monge - Chauvinière",,47.25269750,-1.56822243,,,0,MGCH,1
MGCH2,"Monge - Chauvinière",,47.25283697,-1.56942314,,,0,MGCH,1
MGDR1,"Mongendrière",,47.29270544,-1.55433459,,,0,MGDR,1
MGDR2,"Mongendrière",,47.29233716,-1.55457252,,,0,MGDR,1
MGEL1,"Margelle",,47.27271181,-1.59416606,,,0,MGEL,2
MGIN1,"Mangin",,47.20187084,-1.54508707,,,0,MGIN,1
MGIN2,"Mangin",,47.20160574,-1.54493569,,,0,MGIN,1
MGIN3,"Mangin",,47.20156030,-1.54361087,,,0,MGIN,1
MGIN4,"Mangin",,47.20173999,-1.54362390,,,0,MGIN,1
MGIN5,"Mangin",,47.20103112,-1.54595122,,,0,MGIN,1
MGIN6,"Mangin",,47.20077491,-1.54553618,,,0,MGIN,1
MGIN7,"Mangin",,47.20178543,-1.54494872,,,0,MGIN,2
MGLI1,"Magnoliers",,47.22620349,-1.60568888,,,0,MGLI,2
MGLI2,"Magnoliers",,47.22667526,-1.60506255,,,0,MGLI,2
MGNO1,"Mignonnerie",,47.24375148,-1.48305824,,,0,MGNO,2
MGNO2,"Mignonnerie",,47.24253292,-1.48178096,,,0,MGNO,1
MGUA1,"Mainguais",,47.28266468,-1.48557518,,,0,MGUA,1
MGUA2,"Mainguais",,47.28177057,-1.48537888,,,0,MGUA,1
MHDI1,"Mahaudières",,47.18892461,-1.56039923,,,0,MHDI,2
MHDI2,"Mahaudières",,47.18890678,-1.56092642,,,0,MHDI,2
MHUI1,"Moulin à l'Huile",,47.17776199,-1.56288910,,,0,MHUI,2
MHUI2,"Moulin à l'Huile",,47.17695783,-1.56269844,,,0,MHUI,1
MHUI3,"Moulin à l'Huile",,47.17724522,-1.56219100,,,0,MHUI,1
MHUI4,"Moulin à l'Huile",,47.17661629,-1.56214520,,,0,MHUI,2
MIAI1,"Minais",,47.25709884,-1.46615358,,,0,MIAI,1
MIAI2,"Minais",,47.25709013,-1.46641753,,,0,MIAI,1
MICH1,"Michelet",,47.23535052,-1.55650911,,,0,MICH,1
MICH2,"Michelet",,47.23498668,-1.55661486,,,0,MICH,1
MICH3,"Michelet",,47.23451072,-1.55737362,,,0,MICH,1
MICH4,"Michelet",,47.23461394,-1.55698443,,,0,MICH,1
MICH5,"Michelet",,47.23526067,-1.55650257,,,0,MICH,2
MIMO1,"Mimosas",,47.24132529,-1.58749450,,,0,MIMO,1
MIMO2,"Mimosas",,47.24132080,-1.58762642,,,0,MIMO,1
MIND1,"Mairie d'Indre",,47.20071585,-1.66830435,,,0,MIND,1
MIND2,"Mairie d'Indre",,47.20042341,-1.66894327,,,0,MIND,1
MITR1,"Mitrie",,47.22881508,-1.52588742,,,0,MITR,1
MITR2,"Mitrie",,47.22825389,-1.52650798,,,0,MITR,1
MITR3,"Mitrie",,47.22775459,-1.52528198,,,0,MITR,1
MITR4,"Mitrie",,47.22887398,-1.52681720,,,0,MITR,1
MKSU1,"Malakoff",,47.21609496,-1.52113569,,,0,MKSU,1
MKSU2,"Malakoff",,47.21600070,-1.52126108,,,0,MKSU,1
MLAN1,"Magellan",,47.18816871,-1.46442750,,,0,MLAN,1
MLAN2,"Magellan",,47.18817306,-1.46429570,,,0,MLAN,1
MLCH1,"Morlachère",,47.16180846,-1.48262804,,,0,MLCH,1
MLCH3,"Morlachère",,47.16204305,-1.48370116,,,0,MLCH,1
MLDR1,"Maladrie",,47.18808041,-1.49427894,,,0,MLDR,1
MLDR2,"Maladrie",,47.18828419,-1.49627525,,,0,MLDR,1
MLHE1,"Moulin Hérel",,47.21943384,-1.63757971,,,0,MLHE,1
MLHE2,"Moulin Hérel",,47.21961352,-1.63759306,,,0,MLHE,1
MLIN1,"Moulin",,47.18866730,-1.50370123,,,0,MLIN,1
MLIN2,"Moulin",,47.18888850,-1.50517039,,,0,MLIN,1
MLLI1,"Mellinet",,47.21089003,-1.57667075,,,0,MLLI,1
MLLI2,"Mellinet",,47.21181087,-1.57607719,,,0,MLLI,1
MLLI3,"Mellinet",,47.21174818,-1.57792313,,,0,MLLI,1
MLLI4,"Mellinet",,47.21119539,-1.57563565,,,0,MLLI,1
MLNE1,"Moulinets",,47.20991365,-1.62894176,,,0,MLNE,2
MLNE2,"Moulinets",,47.20990457,-1.62920545,,,0,MLNE,2
MLON1,"Mulonnière",,47.26601192,-1.55000977,,,0,MLON,1
MLON2,"Mulonnière",,47.26556269,-1.54997711,,,0,MLON,1
MLRA1,"Malraux",,47.25440647,-1.51741841,,,0,MLRA,2
MLRA2,"Malraux",,47.25430780,-1.51767585,,,0,MLRA,1
MMSS1,"Mermoz",,47.19872011,-1.51552255,,,0,MMSS,1
MMSS2,"Mermoz",,47.19880996,-1.51552901,,,0,MMSS,2
MNEF1,"Moulin Neuf",,47.23021107,-1.51646831,,,0,MNEF,1
MNEF2,"Moulin Neuf",,47.22985168,-1.51644242,,,0,MNEF,1
MNFA1,"Manufacture",,47.21880310,-1.53706201,,,0,MNFA,1
MNFA2,"Manufacture",,47.21869109,-1.53771487,,,0,MNFA,1
MNIE1,"Moulinier",,47.13523845,-1.66552211,,,0,MNIE,2
MNIE2,"Moulinier",,47.13549882,-1.66580556,,,0,MNIE,2
MNOT1,"Minoterie",,47.21686600,-1.72160133,,,0,MNOT,1
MNOT2,"Minoterie",,47.21686600,-1.72160133,,,0,MNOT,1
MNSS1,"Malnoue",,47.20320971,-1.50514128,,,0,MNSS,2
MNSS2,"Malnoue",,47.20265743,-1.50549809,,,0,MNSS,2
MNTR2,"Ménétrier",,47.24122134,-1.52387404,,,0,MNTR,2
MNTR3,"Ménétrier",,47.24086637,-1.52371617,,,0,MNTR,1
MNVE1,"Maison Neuve",,47.27471369,-1.46727465,,,0,MNVE,1
MNVE2,"Maison Neuve",,47.27453400,-1.46726186,,,0,MNVE,1
MOCT1,"Moulin Collet",,47.20032859,-1.76634105,,,0,MOCT,1
MOCT2,"Moulin Collet",,47.20033329,-1.76620925,,,0,MOCT,1
MOET1,"Mouettes",,47.21025853,-1.74291146,,,0,MOET,2
MOET2,"Mouettes",,47.21046153,-1.74226599,,,0,MOET,2
MOIN1,"Moinard",,47.21353271,-1.72928032,,,0,MOIN,2
MOIN2,"Moinard",,47.21325855,-1.72939168,,,0,MOIN,2
MONE1,"Moinet",,47.26577139,-1.49257017,,,0,MONE,2
MONE2,"Moinet",,47.26560922,-1.49202933,,,0,MONE,2
MONE3,"Moinet",,47.26469759,-1.49236094,,,0,MONE,1
MONE4,"Moinet",,47.26497590,-1.49211627,,,0,MONE,1
MORH1,"Morrhonnière - Petit Port",,47.24165750,-1.55643927,,,0,MORH,1
MORH2,"Morrhonnière - Petit Port",,47.24129812,-1.55641311,,,0,MORH,1
MORH3,"Morrhonnière - Petit Port",,47.24157211,-1.55630080,,,0,MORH,1
MORH4,"Morrhonnière - Petit Port",,47.24099740,-1.55731697,,,0,MORH,2
MOTE1,"Motte Rouge",,47.22796459,-1.55385604,,,0,MOTE,1
MOTE2,"Motte Rouge",,47.22767724,-1.55436401,,,0,MOTE,1
MOTE3,"Motte Rouge",,47.22879100,-1.55338727,,,0,MOTE,2
MOUT1,"Moutonnerie",,47.21956936,-1.53301942,,,0,MOUT,1
MOUT2,"Moutonnerie",,47.21955608,-1.53341505,,,0,MOUT,1
MOVA1,"Mairie d'Orvault",,47.27136840,-1.62291523,,,0,MOVA,1
MOVA2,"Mairie d'Orvault",,47.27116153,-1.62369389,,,0,MOVA,1
MOVA4,"Mairie d'Orvault",,47.27072592,-1.62326462,,,0,MOVA,1
MOZI1,"Monzie",,47.20339609,-1.53991144,,,0,MOZI,1
MOZI2,"Monzie",,47.20322527,-1.53963475,,,0,MOZI,1
MPAU1,"Marcel Paul",,47.24600744,-1.61654004,,,0,MPAU,1
MPAU2,"Marcel Paul",,47.24576053,-1.61586045,,,0,MPAU,1
MPAU3,"Marcel Paul",,47.24558537,-1.61571523,,,0,MPAU,1
MPAU4,"Marcel Paul",,47.24679792,-1.61712756,,,0,MPAU,1
MPAU6,"Marcel Paul",,47.24576505,-1.61572851,,,0,MPAU,1
MPER1,"Millepertuis",,47.22203672,-1.67942003,,,0,MPER,1
MPER2,"Millepertuis",,47.22184785,-1.67967028,,,0,MPER,1
MPMN1,"Melpomène",,47.27759170,-1.50003396,,,0,MPMN,2
MPMN2,"Melpomène",,47.27694960,-1.50038487,,,0,MPMN,2
MPTA1,"Maison Poitard",,47.14668519,-1.64974194,,,0,MPTA,2
MPTA2,"Maison Poitard",,47.14700488,-1.64831344,,,0,MPTA,2
MQDI1,"Marquis de Dion",,47.29709079,-1.48779883,,,0,MQDI,1
MQDI2,"Marquis de Dion",,47.29708641,-1.48793090,,,0,MQDI,1
MQLI1,"Mocquelière",,47.23313228,-1.61902651,,,0,MQLI,2
MQLI2,"Mocquelière",,47.23332554,-1.61864409,,,0,MQLI,2
MRAI1,"Maraîchers",,47.18483142,-1.51069199,,,0,MRAI,1
MRAI2,"Maraîchers",,47.18465612,-1.51054729,,,0,MRAI,1
MRDI1,"Maison Radieuse",,47.18834209,-1.56696289,,,0,MRDI,2
MRDI2,"Maison Radieuse",,47.18791072,-1.56640295,,,0,MRDI,1
MREZ1,"Mairie de Rezé",,47.19138392,-1.57022370,,,0,MREZ,2
MREZ2,"Mairie de Rezé",,47.19130302,-1.56995354,,,0,MREZ,2
MRGE1,"Morges",,47.16485751,-1.47214892,,,0,MRGE,1
MRGE2,"Morges",,47.16495172,-1.47202356,,,0,MRGE,1
MRIE1,"Maurienne",,47.27561915,-1.44246145,,,0,MRIE,1
MRIE2,"Maurienne",,47.27552930,-1.44245510,,,0,MRIE,1
MROT1,"Moulin Rothard",,47.19584634,-1.74035914,,,0,MROT,1
MROT2,"Moulin Rothard",,47.19590819,-1.74115678,,,0,MROT,1
MRRI1,"Marrière",,47.23759212,-1.52466998,,,0,MRRI,1
MRRI2,"Marrière",,47.23751111,-1.52439965,,,0,MRRI,2
MRTE1,"Marterie",,47.17846469,-1.53136943,,,0,MRTE,1
MRTE2,"Marterie",,47.17926005,-1.53182319,,,0,MRTE,1
MRTE3,"Marterie",,47.17849125,-1.53057879,,,0,MRTE,1
MRZE1,"Marzilles",,47.18256965,-1.47578682,,,0,MRZE,1
MRZE2,"Marzilles",,47.18274936,-1.47579961,,,0,MRZE,1
MSHE1,"Mairie de St-Herblain",,47.21084848,-1.64883852,,,0,MSHE,1
MSHE2,"Mairie de St-Herblain",,47.21102816,-1.64885191,,,0,MSHE,1
MSHE3,"Mairie de St-Herblain",,47.21147736,-1.64888537,,,0,MSHE,1
MSHE4,"Mairie de St-Herblain",,47.21157177,-1.64876022,,,0,MSHE,1
MSLL1,"Marseillaise",,47.20734188,-1.59094994,,,0,MSLL,1
MSLL2,"Marseillaise",,47.20749011,-1.59188602,,,0,MSLL,1
MSOR1,"Mairie des Sorinières",,47.14916207,-1.53229012,,,0,MSOR,1
MSOR2,"Mairie des Sorinières",,47.14959804,-1.53271767,,,0,MSOR,1
MSSI1,"Mississipi",,47.23716387,-1.60914177,,,0,MSSI,2
MSSI2,"Mississipi",,47.23706500,-1.60939896,,,0,MSSI,2
MTEI1,"Monteil",,47.21396999,-1.54953382,,,0,MTEI,1
MTEI2,"Monteil",,47.21407318,-1.54914477,,,0,MTEI,1
MTLI1,"Martellière",,47.19912115,-1.52506580,,,0,MTLI,1
MTLI2,"Martellière",,47.19916680,-1.52639054,,,0,MTLI,2
MTRA1,"Mortrais",,47.12800978,-1.61667784,,,0,MTRA,1
MTRA2,"Mortrais",,47.12837820,-1.61644107,,,0,MTRA,1
MTYY1,"Monty",,47.27421430,-1.43309950,,,0,MTYY,2
MULI1,"Mouline",,47.32355207,-1.55300628,,,0,MULI,2
MULI2,"Mouline",,47.32354762,-1.55313841,,,0,MULI,2
MVA98,"Mortier Vannerie",,47.18007484,-1.49938620,,,0,MVAN,1
MVA99,"Mortier Vannerie",,47.17998499,-1.49937977,,,0,MVAN,1
MVAN1,"Mortier Vannerie",,47.18007484,-1.49938620,,,0,MVAN,1
MVAN2,"Mortier Vannerie",,47.18016469,-1.49939264,,,0,MVAN,1
MVRD2,"Monteverdi",,47.26657684,-1.44632051,,,0,MVRD,2
MVSI1,"Mauvoisins",,47.19027625,-1.52561680,,,0,MVSI,1
MVSI2,"Mauvoisins",,47.19001113,-1.52546555,,,0,MVSI,1
MZUR1,"Mazure",,47.25717585,-1.48018114,,,0,MZUR,2
MZUR2,"Mazure",,47.25796702,-1.48076677,,,0,MZUR,2
NAT96,"Nantes-Atlantique",,47.15807031,-1.60159806,,,0,NATL,1
NATL1,"Nantes-Atlantique",,47.15807031,-1.60159806,,,0,NATL,1
NATL2,"Nantes-Atlantique",,47.15781429,-1.60118309,,,0,NATL,1
NBEL1,"Nouveau Bêle",,47.26879307,-1.50191635,,,0,NBEL,1
NBEL2,"Nouveau Bêle",,47.26897277,-1.50192926,,,0,NBEL,1
NBLA1,"Noé Blanche",,47.25739514,-1.50612485,,,0,NBLA,1
NBLA2,"Noé Blanche",,47.25760751,-1.50785986,,,0,NBLA,2
NCTE1,"Noë Cottée",,47.19409498,-1.47858966,,,0,NCTE,1
NCTE2,"Noë Cottée",,47.19451804,-1.47941259,,,0,NCTE,1
NDRE1,"Naudières",,47.17315290,-1.53666522,,,0,NDRE,1
NDRE2,"Naudières",,47.17362430,-1.53603890,,,0,NDRE,1
NET75,"Neustrie",,47.17591416,-1.59339984,,,0,NETR,1
NET76,"Neustrie",,47.17608936,-1.59354480,,,0,NETR,1
NET77,"Neustrie",,47.17608936,-1.59354480,,,0,NETR,1
NET78,"Neustrie",,47.17591416,-1.59339984,,,0,NETR,1
NET79,"Neustrie",,47.17591416,-1.59339984,,,0,NETR,1
NET80,"Neustrie",,47.17591416,-1.59339984,,,0,NETR,1
NETR1,"Neustrie",,47.17729781,-1.59244464,,,0,NETR,1
NETR2,"Neustrie",,47.17718998,-1.59296511,,,0,NETR,1
NETR3,"Neustrie",,47.17701478,-1.59282016,,,0,NETR,1
NETR4,"Neustrie",,47.17701029,-1.59295192,,,0,NETR,1
NETR6,"Neustrie",,47.17711362,-1.59256322,,,0,NETR,1
NIAG1,"Niagara",,47.30600333,-1.49333602,,,0,NIAG,1
NIAG2,"Niagara",,47.30577542,-1.49477615,,,0,NIAG,1
NILL1,"Nil",,47.24242889,-1.60794317,,,0,NILL,1
NILL2,"Nil",,47.24172369,-1.60749438,,,0,NILL,1
NILL3,"Nil",,47.24187178,-1.60843110,,,0,NILL,1
NIZA1,"Nizan",,47.20574949,-1.55025846,,,0,NIZA,1
NIZA2,"Nizan",,47.20565965,-1.55025193,,,0,NIZA,1
NLBR1,"Noë Lambert",,47.23007878,-1.52849088,,,0,NLBR,1
NLBR2,"Noë Lambert",,47.22981809,-1.52820760,,,0,NLBR,1
NLLA1,"Noë Allais",,47.22030031,-1.68788334,,,0,NLLA,1
NLLA2,"Noë Allais",,47.22036251,-1.68868129,,,0,NLLA,1
NOAH1,"Noë St Jean",,47.21927100,-1.73513717,,,0,NOAH,1
NOAH2,"Noë St Jean",,47.21918582,-1.73499847,,,0,NOAH,1
NOHH1,"North'House",,47.19567902,-1.57370859,,,0,NOHH,1
NOHH2,"North'House",,47.19577781,-1.57345153,,,0,NOHH,2
NONO1,"Noë Nozou 1",,47.13027621,-1.63717053,,,0,NONO,1
NONO2,"Noë Nozou 1",,47.13019092,-1.63703222,,,0,NONO,1
NOSH1,"Noëlles",,47.24030012,-1.60434756,,,0,NOSH,1
NOSH2,"Noëlles",,47.24021479,-1.60420902,,,0,NOSH,1
NOZO1,"Noë Nozou 2",,47.13210719,-1.64152997,,,0,NOZO,1
NOZO2,"Noë Nozou 2",,47.13244380,-1.64221491,,,0,NOZO,1
NRCA1,"Noë Rocard",,47.16363007,-1.49015297,,,0,NRCA,2
NRCA2,"Noë Rocard",,47.16334300,-1.49066067,,,0,NRCA,2
NRDA1,"Neruda",,47.21756366,-1.61338063,,,0,NRDA,1
NRDA2,"Neruda",,47.21772527,-1.61392135,,,0,NRDA,1
NRDA3,"Neruda",,47.21748738,-1.61297841,,,0,NRDA,1
NRDA4,"Neruda",,47.21730769,-1.61296514,,,0,NRDA,1
NRDA5,"Neruda",,47.21763144,-1.61140267,,,0,NRDA,1
NRDA6,"Neruda",,47.21782468,-1.61102034,,,0,NRDA,1
NVER1,"Noue Verrière",,47.27601666,-1.57111741,,,0,NVER,2
NVER2,"Noue Verrière",,47.27788101,-1.57191546,,,0,NVER,2
OBLA1,"Ouche Blanche",,47.17952322,-1.56407418,,,0,OBLA,2
OBLA2,"Ouche Blanche",,47.17996352,-1.56437046,,,0,OBLA,2
OCAN1,"Océane",,47.22759682,-1.63593842,,,0,OCAN,1
OCAN2,"Océane",,47.22740350,-1.63632074,,,0,OCAN,1
OCEA1,"Couëron Océan",,47.21326856,-1.73930725,,,0,OCEA,1
OCEA2,"Couëron Océan",,47.21376436,-1.73802303,,,0,OCEA,2
OCEA3,"Couëron Océan",,47.21376436,-1.73802303,,,0,OCEA,2
OCEA4,"Couëron Océan",,47.21345289,-1.73918909,,,0,OCEA,1
OCOR1,"Ouche Cormier",,47.26466582,-1.62400648,,,0,OCOR,1
OCOR2,"Ouche Cormier",,47.26459410,-1.62347191,,,0,OCOR,1
ODLA1,"Ouche des Landes",,47.19503341,-1.48288475,,,0,ODLA,1
ODLA2,"Ouche des Landes",,47.19488430,-1.48194919,,,0,ODLA,1
ODNE1,"Ordronneau",,47.19385526,-1.57436817,,,0,ODNE,1
ODNE2,"Ordronneau",,47.19383736,-1.57489540,,,0,ODNE,1
OGV99,"Orvault - Grand Val",,47.26297286,-1.59450834,,,0,OGVA,1
OGVA1,"Orvault - Grand Val",,47.26196670,-1.59231746,,,0,OGVA,1
OGVA2,"Orvault - Grand Val",,47.26171066,-1.59190172,,,0,OGVA,1
OGVA3,"Orvault - Grand Val",,47.26169717,-1.59229764,,,0,OGVA,1
OGVA4,"Orvault - Grand Val",,47.26203856,-1.59285196,,,0,OGVA,1
OGVA5,"Orvault - Grand Val",,47.26297286,-1.59450834,,,0,OGVA,1
OLIV1,"Olivier",,47.21756305,-1.72482718,,,0,OLIV,1
OLIV2,"Olivier",,47.21747321,-1.72482036,,,0,OLIV,1
OLVE1,"Oliveraie",,47.18804171,-1.53047604,,,0,OLVE,1
OLVE2,"Oliveraie",,47.18855867,-1.53117399,,,0,OLVE,1
OLYM1,"Olympe de Gouges",,47.30870732,-1.54450975,,,0,OLYM,1
OLYM2,"Olympe de Gouges",,47.30897242,-1.54466143,,,0,OLYM,1
OMRL1,"Orvault - Morlière",,47.24690371,-1.60351160,,,0,OMRL,1
OMRL2,"Orvault - Morlière",,47.24709692,-1.60312902,,,0,OMRL,1
OMRL3,"Orvault - Morlière",,47.24700707,-1.60312240,,,0,OMRL,1
OMRL4,"Orvault - Morlière",,47.24708790,-1.60339290,,,0,OMRL,1
OMRL5,"Orvault - Morlière",,47.24671050,-1.60389416,,,0,OMRL,1
ONCH1,"Onchère",,47.20276230,-1.46704982,,,0,ONCH,1
ONCH2,"Onchère",,47.20276230,-1.46704982,,,0,ONCH,1
OQNE1,"Ouche Quinet",,47.19602617,-1.50449351,,,0,OQNE,1
OQNE2,"Ouche Quinet",,47.19602177,-1.50462533,,,0,OQNE,1
ORNG1,"La Chapelle Aulnay",,47.30840013,-1.54025010,,,0,ORNG,2
ORNG2,"La Chapelle Aulnay",,47.30848997,-1.54025662,,,0,ORNG,2
ORVA1,"Orvault",,47.27869769,-1.64026681,,,0,ORVA,1
OSAN2,"Ouessant",,47.27007669,-1.44670053,,,0,OSAN,2
OTAG1,"50 Otages",,47.22016216,-1.55553600,,,0,OTAG,1
OTAG2,"50 Otages",,47.21978496,-1.55603735,,,0,OTAG,1
OTAG3,"50 Otages",,47.21970848,-1.55563519,,,0,OTAG,1
OTAG4,"50 Otages",,47.21990598,-1.55512076,,,0,OTAG,1
PABO1,"Paix",,47.18297601,-1.59233294,,,0,PABO,2
PABO2,"Paix",,47.18243245,-1.59242516,,,0,PABO,1
PACQ1,"Parc",,47.27235400,-1.48417618,,,0,PACQ,1
PACQ2,"Parc",,47.27263229,-1.48393143,,,0,PACQ,2
PAEB1,"Pablée",,47.21638947,-1.74020606,,,0,PAEB,1
PAEB2,"Pablée",,47.21539195,-1.74039445,,,0,PAEB,1
PAJO1,"Petit Anjou",,47.20584171,-1.50453728,,,0,PAJO,1
PAJO2,"Petit Anjou",,47.20574746,-1.50466267,,,0,PAJO,1
PALL1,"Pont Allard",,47.19655292,-1.66627488,,,0,PALL,1
PALL2,"Pont Allard",,47.19672802,-1.66642012,,,0,PALL,1
PAMI1,"Palmiers",,47.19011839,-1.53300429,,,0,PAMI,2
PAMI2,"Palmiers",,47.19011839,-1.53300429,,,0,PAMI,2
PAON1,"Papillons",,47.14680985,-1.51918269,,,0,PAON,1
PAON2,"Papillons",,47.14600562,-1.51899279,,,0,PAON,1
PAPO1,"Parc Potager",,47.23595128,-1.52256798,,,0,PAPO,1
PAPO2,"Parc Potager",,47.23612655,-1.52271286,,,0,PAPO,1
PATR1,"Pâtis Rondin",,47.24795511,-1.51642433,,,0,PATR,2
PATR2,"Pâtis Rondin",,47.24776219,-1.51680722,,,0,PATR,1
PB1B1,"Parc de la Bouvre",,47.17605106,-1.61309195,,,0,PB1B,1
PB1B2,"Parc de la Bouvre",,47.17602394,-1.61388252,,,0,PB1B,1
PB1B3,"Parc de la Bouvre 1",,47.17584425,-1.61386926,,,0,PB1B,1
PB1B6,"Parc de la Bouvre",,47.17667545,-1.61327011,,,0,PB1B,1
PBAI1,"Parc Bel Air",,47.17872785,-1.47485280,,,0,PBAI,1
PBAI2,"Parc Bel Air",,47.17855251,-1.47470823,,,0,PBAI,2
PBFF1,"Paimboeuf",,47.17633227,-1.62064218,,,0,PBFF,1
PBFF2,"Paimboeuf",,47.17656629,-1.61907431,,,0,PBFF,1
PBLE1,"Pâtis Brûlé",,47.19926265,-1.50736867,,,0,PBLE,1
PBLE2,"Pâtis Brûlé",,47.20052494,-1.50732719,,,0,PBLE,2
PBLE3,"Pâtis Brûlé",,47.20006690,-1.50755858,,,0,PBLE,2
PBLE4,"Pâtis Brûlé",,47.19926705,-1.50723684,,,0,PBLE,1
PBOT1,"Poulbot",,47.21402938,-1.64801795,,,0,PBOT,1
PBOT2,"Poulbot",,47.21329698,-1.64835997,,,0,PBOT,1
PBRE1,"Petit Breton",,47.21333400,-1.60011407,,,0,PBRE,1
PBRE2,"Petit Breton",,47.21323965,-1.60023932,,,0,PBRE,2
PBU98,"Pé de Buzay",,47.20250065,-1.81633789,,,0,PBUY,2
PBYE1,"Port Boyer",,47.24117489,-1.53868259,,,0,PBYE,1
PBYE2,"Port Boyer",,47.24109392,-1.53841222,,,0,PBYE,1
PBYE9,"Port Boyer",,47.24210322,-1.54589148,,,0,PBYE,1
PCAC1,"Petit Carcouët",,47.22819914,-1.58679594,,,0,PCAC,1
PCAC2,"Petit Carcouët",,47.22793410,-1.58664428,,,0,PCAC,1
PCBI1,"Picabia",,47.25466181,-1.57669991,,,0,PCBI,1
PCBI2,"Picabia",,47.25456749,-1.57682529,,,0,PCBI,1
PCDI1,"Picaudière",,47.28041848,-1.48541452,,,0,PCDI,2
PCDI2,"Picaudière",,47.27934905,-1.48507335,,,0,PCDI,2
PCEN1,"Place Centrale",,47.26243057,-1.67306072,,,0,PCEN,1
PCEN2,"Place Centrale",,47.26228759,-1.67199149,,,0,PCEN,1
PCHA1,"Portechaise",,47.20081059,-1.52571630,,,0,PCHA,1
PCHA2,"Portechaise",,47.20061763,-1.52609882,,,0,PCHA,1
PCLO1,"Petit Clos",,47.20530638,-1.50978519,,,0,PCLO,1
PCLO2,"Petit Clos",,47.20530198,-1.50991704,,,0,PCLO,1
PCNN1,"Planchonnais",,47.25357239,-1.47476516,,,0,PCNN,1
PCNN2,"Planchonnais",,47.25337524,-1.47528020,,,0,PCNN,1
PCPE1,"Porte de La Chapelle",,47.25970296,-1.55815036,,,0,PCPE,1
PCPE2,"Porte de La Chapelle",,47.25979280,-1.55815690,,,0,PCPE,1
PCPE3,"Porte de La Chapelle",,47.25937031,-1.55733234,,,0,PCPE,1
PCPE4,"Porte de La Chapelle",,47.25901094,-1.55730617,,,0,PCPE,1
PCRE1,"Poincaré",,47.22223794,-1.58464004,,,0,PCRE,1
PCRE2,"Poincaré",,47.22233227,-1.58451474,,,0,PCRE,1
PCRE3,"Poincaré",,47.22275905,-1.58520707,,,0,PCRE,1
PCRE4,"Poincaré",,47.22276354,-1.58507519,,,0,PCRE,1
PCSI1,"Petite Censive",,47.26050332,-1.56111925,,,0,PCSI,2
PCSI2,"Petite Censive",,47.26129915,-1.56422022,,,0,PCSI,1
PCTI1,"Petit Chantilly",,47.25447779,-1.60063033,,,0,PCTI,1
PCTI2,"Petit Chantilly",,47.25456313,-1.60076891,,,0,PCTI,1
PCVO1,"Pontecorvo",,47.24671506,-1.53194191,,,0,PCVO,1
PCVO2,"Pontecorvo",,47.24614942,-1.53269455,,,0,PCVO,1
PCZI1,"Pont de Chézine",,47.23815563,-1.61437263,,,0,PCZI,1
PCZI2,"Pont de Chézine",,47.23806578,-1.61436599,,,0,PCZI,2
PDAN1,"Pas d'Ane",,47.18139625,-1.47041939,,,0,PDAN,2
PDAN2,"Pas d'Ane",,47.18204264,-1.46993696,,,0,PDAN,2
PDCE1,"Pont du Cens",,47.24860646,-1.57731488,,,0,PDCE,1
PDCE3,"Pont du Cens",,47.24888495,-1.57707072,,,0,PDCE,1
PDEA1,"Porteurs d'Eau",,47.27151222,-1.59765073,,,0,PDEA,2
PDOU1,"Porte Douillard",,47.28973819,-1.51930528,,,0,PDOU,2
PDOU2,"Porte Douillard",,47.28957614,-1.51876412,,,0,PDOU,2
PDPI1,"Pomme de Pin",,47.26708762,-1.59534026,,,0,PDPI,1
PDUC1,"Prairie au Duc",,47.20425767,-1.56508419,,,0,PDUC,1
PDUC2,"Prairie au Duc",,47.20427999,-1.56442501,,,0,PDUC,1
PEDR1,"Perdriaux",,47.16133976,-1.48589582,,,0,PEDR,2
PEDR2,"Perdriaux",,47.16125865,-1.48562593,,,0,PEDR,2
PEGE1,"Pégers",,47.13758868,-1.47153044,,,0,PEGE,2
PELO1,"Pelousière",,47.20775876,-1.64702227,,,0,PELO,1
PELO2,"Pelousière",,47.20775876,-1.64702227,,,0,PELO,1
PEON1,"Perron",,47.22489675,-1.60175834,,,0,PEON,1
PEON2,"Perron",,47.22438473,-1.60092736,,,0,PEON,1
PERR1,"Perray",,47.24758080,-1.51414888,,,0,PERR,1
PERR2,"Perray",,47.24753061,-1.51295490,,,0,PERR,1
PETR1,"Pétrels",,47.25421089,-1.50708649,,,0,PETR,2
PETR2,"Pétrels",,47.25430074,-1.50709295,,,0,PETR,1
PFNA1,"Purfina",,47.19457500,-1.63494095,,,0,PFNA,2
PFNA2,"Purfina",,47.19458409,-1.63467734,,,0,PFNA,2
PGRI1,"Pagerie",,47.17853941,-1.65066066,,,0,PGRI,1
PGRI2,"Pagerie",,47.17872222,-1.65318427,,,0,PGRI,1
PGTI1,"Plinguetière",,47.13297896,-1.61361274,,,0,PGTI,1
PGTI2,"Plinguetière",,47.13381016,-1.61301406,,,0,PGTI,2
PHTR1,"Parc Chantrerie",,47.28679692,-1.52107843,,,0,PHTR,2
PHTR2,"Parc Chantrerie",,47.28617242,-1.52090098,,,0,PHTR,2
PHVE1,"Pré Hervé",,47.24412420,-1.51786761,,,0,PHVE,1
PHVE2,"Pré Hervé",,47.24368379,-1.51757136,,,0,PHVE,1
PIAO1,"Piano'cktail",,47.17483933,-1.60639797,,,0,PIAO,1
PIAO2,"Piano'cktail",,47.17483031,-1.60666149,,,0,PIAO,1
PIBL1,"Pierre Blanche",,47.17213899,-1.62733285,,,0,PIBL,1
PIBL2,"Pierre Blanche",,47.17205368,-1.62719445,,,0,PIBL,1
PICA1,"Picasso",,47.21502510,-1.53692066,,,0,PICA,1
PICA2,"Picasso",,47.21541994,-1.53589176,,,0,PICA,1
PIEA1,"Pierre Abélard",,47.15511168,-1.68456959,,,0,PIEA,2
PIEA2,"Pierre Abélard",,47.15483756,-1.68468106,,,0,PIEA,2
PIPA1,"Pipay",,47.22583332,-1.53691006,,,0,PIPA,2
PIPA2,"Pipay",,47.22555048,-1.53728621,,,0,PIPA,2
PIRA1,"Pirmil",,47.19637136,-1.54257398,,,0,PIRM,1
PIRB2,"Pirmil",,47.19608851,-1.54294989,,,0,PIRM,1
PIRC1,"Pirmil",,47.19619167,-1.54256095,,,0,PIRM,1
PIRD1,"Pirmil",,47.19609738,-1.54268626,,,0,PIRM,1
PIRD2,"Pirmil",,47.19590881,-1.54293687,,,0,PIRM,1
PIRE1,"Pirmil",,47.19674851,-1.54207275,,,0,PIRM,2
PIRF1,"Pirmil",,47.19690157,-1.54287669,,,0,PIRM,1
PISE1,"Pin Sec",,47.24375599,-1.51810558,,,0,PISE,1
PISE2,"Pin Sec",,47.24340102,-1.51794774,,,0,PISE,1
PISE3,"Pin Sec",,47.24328029,-1.51886481,,,0,PISE,1
PISE4,"Pin Sec",,47.24328911,-1.51860094,,,0,PISE,1
PJOU1,"Point du Jour",,47.26495622,-1.44355980,,,0,PJOU,1
PJOU2,"Point du Jour",,47.26495189,-1.44369179,,,0,PJOU,1
PJOU4,"Point du Jour",,47.26484041,-1.44434541,,,0,PJOU,1
PLAC1,"Placis",,47.19956291,-1.51994400,,,0,PLAC,2
PLAC2,"Placis",,47.19964834,-1.52008230,,,0,PLAC,2
PLBL1,"Port la Blanche",,47.27172761,-1.51655030,,,0,PLBL,2
PLBL2,"Port la Blanche",,47.27191171,-1.51643125,,,0,PLBL,2
PLCL1,"Polyclinique",,47.22798140,-1.61163773,,,0,PLCL,1
PLCL2,"Polyclinique",,47.22798140,-1.61163773,,,0,PLCL,1
PLES1,"Plessis",,47.30097024,-1.55228866,,,0,PLES,2
PLES2,"Plessis",,47.30096579,-1.55242073,,,0,PLES,2
PLGU1,"Pouliguen",,47.23949666,-1.54305732,,,0,PLGU,2
PLGU2,"Pouliguen",,47.24024206,-1.54231792,,,0,PLGU,2
PLNA1,"Port launay",,47.20966925,-1.74683222,,,0,PLNA,2
PLNA2,"Port launay",,47.20968794,-1.74630488,,,0,PLNA,2
PLOR1,"Ploreau",,47.30314874,-1.55178525,,,0,PLOR,1
PLOR2,"Ploreau",,47.30305444,-1.55191079,,,0,PLOR,1
PLPC1,"Place des Pêcheurs",,47.13648071,-1.66865096,,,0,PLPC,2
PLPC2,"Place des Pêcheurs",,47.13646696,-1.66904593,,,0,PLPC,2
PLSS1,"Plessis",,47.26044466,-1.66021017,,,0,PLSS,1
PLSS2,"Plessis",,47.26035939,-1.66007149,,,0,PLSS,1
PLTI1,"Platière",,47.19465181,-1.55883419,,,0,PLTI,2
PLTI2,"Platière",,47.19457601,-1.56107499,,,0,PLTI,2
PMA99,"Pont Marchand",,47.26115032,-1.63194901,,,0,PMAR,1
PMAR1,"Pont Marchand",,47.26062490,-1.63151308,,,0,PMAR,1
PMAR2,"Pont Marchand",,47.26063398,-1.63124914,,,0,PMAR,1
PMEU1,"Port aux Meules",,47.16542495,-1.49305446,,,0,PMEU,1
PMEU2,"Port aux Meules",,47.16576244,-1.49373890,,,0,PMEU,1
PMTR1,"Pont de la Métairie",,47.26244371,-1.44602801,,,0,PMTR,1
PMTR2,"Pont de la Métairie",,47.26243505,-1.44629199,,,0,PMTR,1
PMTR3,"Pont de la Métairie",,47.26249027,-1.44735426,,,0,PMTR,1
PMTR4,"Pont de la Métairie",,47.26240475,-1.44721591,,,0,PMTR,2
PMVE1,"Prairie de Mauves",,47.22003180,-1.51652833,,,0,PMVE,1
PMVE2,"Prairie de Mauves",,47.22029694,-1.51667962,,,0,PMVE,1
PNLU2,"Pinier",,47.25271209,-1.48171431,,,0,PNLU,2
PNLU3,"Pinier",,47.25271209,-1.48171431,,,0,PNLU,2
PNPI1,"Pont Pilet",,47.33947182,-1.57231822,,,0,PNPI,2
PNRZ1,"Pinier",,47.18159748,-1.54533445,,,0,PNRZ,1
PNRZ2,"Pinier",,47.18276106,-1.54555093,,,0,PNRZ,1
PNTI1,"Plantiveau",,47.24649647,-1.51155784,,,0,PNTI,1
PNTI2,"Plantiveau",,47.24623134,-1.51140650,,,0,PNTI,1
POIT1,"Poitou",,47.22432892,-1.56549050,,,0,POIT,1
POIT2,"Poitou",,47.22406831,-1.56520707,,,0,POIT,1
POLE1,"Poulenc",,47.25540792,-1.58125232,,,0,POLE,1
POLE2,"Poulenc",,47.25532256,-1.58111378,,,0,POLE,1
POMM1,"Pommeraie",,47.14625206,-1.69578708,,,0,POMM,1
POMM2,"Pommeraie",,47.14650313,-1.69633410,,,0,POMM,1
PONT1,"Pontereau",,47.30641716,-1.37870501,,,0,PONT,2
PONT2,"Pontereau",,47.30641291,-1.37883711,,,0,PONT,2
POON1,"Potiron",,47.27077181,-1.51820156,,,0,POON,1
POON2,"Potiron",,47.27048463,-1.51871013,,,0,POON,1
POST1,"Poste",,47.29523442,-1.55412164,,,0,POST,1
POST2,"Poste",,47.29523442,-1.55412164,,,0,POST,1
POTT1,"Pottier",,47.17789801,-1.62749505,,,0,POTT,1
POTT2,"Pottier",,47.17763302,-1.62734333,,,0,POTT,2
POYA1,"Poyaux",,47.16678439,-1.53052577,,,0,POYA,2
POYA2,"Poyaux",,47.16658699,-1.53103977,,,0,POYA,2
PPDO1,"Pompidou",,47.20918997,-1.52830369,,,0,PPDO,1
PPDO2,"Pompidou",,47.20939620,-1.52752557,,,0,PPDO,1
PPFA4,"Petit Port",,47.24360737,-1.55737478,,,0,PPFA,1
PPFA5,"Petit Port",,47.24370167,-1.55724939,,,0,PPFA,1
PPLI1,"Peupliers",,47.19941241,-1.49746866,,,0,PPLI,1
PPLI2,"Peupliers",,47.19956367,-1.49562949,,,0,PPLI,1
PPOU1,"Pré Poulain",,47.27248637,-1.44462168,,,0,PPOU,1
PPOU2,"Pré Poulain",,47.27203712,-1.44458990,,,0,PPOU,1
PPSI1,"Petit Plessis",,47.30194725,-1.38607257,,,0,PPSI,2
PPSI2,"Petit Plessis",,47.30185314,-1.38619840,,,0,PPSI,2
PPTR1,"Papotière",,47.24014265,-1.49681824,,,0,PPTR,2
PPTR2,"Papotière",,47.23994541,-1.49733308,,,0,PPTR,1
PPUN9,"Petit Port - Facultés",,47.24313250,-1.54742102,,,0,PPUN,1
PRCE1,"Procé",,47.22251630,-1.58175188,,,0,PRCE,1
PRCE2,"Procé",,47.22260614,-1.58175846,,,0,PRCE,1
PRDI1,"Praudière",,47.25685006,-1.58387156,,,0,PRDI,1
PRDI2,"Praudière",,47.25739360,-1.58377913,,,0,PRDI,1
PREU1,"Preux",,47.22154837,-1.61274941,,,0,PREU,1
PREU2,"Preux",,47.22119804,-1.61245913,,,0,PREU,1
PRFO1,"Profondine",,47.19610763,-1.48851103,,,0,PRFO,1
PRFO2,"Profondine",,47.19619310,-1.48864928,,,0,PRFO,1
PRGE1,"Portail Rouge",,47.24430373,-1.50439053,,,0,PRGE,1
PRGE2,"Portail Rouge",,47.24392676,-1.50489247,,,0,PRGE,1
PRHE1,"Petit Rocher",,47.24054937,-1.47912671,,,0,PRHE,2
PRHE2,"Petit Rocher",,47.24055373,-1.47899478,,,0,PRHE,2
PRIM1,"Primevères",,47.22496145,-1.67302856,,,0,PRIM,1
PRIM2,"Primevères",,47.22487620,-1.67288995,,,0,PRIM,1
PRMI1,"Pyramide",,47.20803804,-1.49266797,,,0,PRMI,1
PRMI2,"Pyramide",,47.20803366,-1.49279982,,,0,PRMI,1
PRNE1,"Perrines",,47.22753768,-1.51561466,,,0,PRNE,2
PRNE2,"Perrines",,47.22763193,-1.51548924,,,0,PRNE,2
PROU1,"Pont Rousseau Martyrs",,47.19185882,-1.54819272,,,0,PROU,1
PROU2,"Pont Rousseau Martyrs",,47.19185437,-1.54832452,,,0,PROU,1
PROU3,"Pont Rousseau Martyrs",,47.19196644,-1.54767201,,,0,PROU,1
PROU5,"Pont Rousseau Martyrs",,47.19242012,-1.54757281,,,0,PROU,1
PRRI1,"Perrières",,47.30991370,-1.55148328,,,0,PRRI,1
PRRI2,"Perrières",,47.30944224,-1.55211106,,,0,PRRI,1
PRSS1,"Pressoir",,47.12364032,-1.63892195,,,0,PRSS,2
PRSS2,"Pressoir",,47.12355958,-1.63865202,,,0,PRSS,2
PRTE1,"Portereau",,47.16828894,-1.50171153,,,0,PRTE,1
PRTE2,"Portereau",,47.16813998,-1.50077639,,,0,PRTE,1
PRTE3,"Portereau",,47.16730498,-1.50150894,,,0,PRTE,1
PRUT1,"Proutière",,47.19811859,-1.78031310,,,0,PRUT,1
PRUT2,"Proutière",,47.19783496,-1.78068777,,,0,PRUT,1
PRZE1,"Porte de Rezé",,47.15716224,-1.54079053,,,0,PRZE,1
PRZE2,"Porte de Rezé",,47.15724765,-1.54092876,,,0,PRZE,1
PSAU1,"Porte de Sautron",,47.25120854,-1.61983480,,,0,PSAU,1
PSAU2,"Porte de Sautron",,47.25079554,-1.61874600,,,0,PSAU,1
PSCE1,"Plaisance",,47.24028759,-1.59151815,,,0,PSCE,1
PSCE2,"Plaisance",,47.24012139,-1.59110919,,,0,PSCE,1
PSEV1,"Parc de la Sèvre",,47.16444225,-1.47925036,,,0,PSEV,2
PSEV2,"Parc de la Sèvre",,47.16476235,-1.48046168,,,0,PSEV,1
PSIN1,"Pasteur",,47.20098683,-1.67863326,,,0,PSIN,2
PSIN2,"Pasteur",,47.20106749,-1.67890363,,,0,PSIN,2
PSME1,"Place St Méen",,47.31922092,-1.34728328,,,0,PSME,2
PSME2,"Place St Méen",,47.31913107,-1.34727709,,,0,PSME,2
PSOR1,"Prières",,47.15008877,-1.52615191,,,0,PSOR,1
PSOR2,"Prières",,47.15034948,-1.52643476,,,0,PSOR,1
PSPO1,"Parc des Sports",,47.26054278,-1.44906847,,,0,PSPO,1
PSPO2,"Parc des Sports",,47.25996468,-1.45021813,,,0,PSPO,1
PSPO3,"Parc des sports",,47.26094437,-1.45055211,,,0,PSPO,2
PSUD1,"Pôle sud",,47.18880328,-1.46975714,,,0,PSUD,1
PSUD2,"Pôle sud",,47.18880328,-1.46975714,,,0,PSUD,1
PTBO1,"Petit Bois",,47.18571871,-1.67735585,,,0,PTBO,1
PTBO2,"Petit Bois",,47.18541245,-1.67838988,,,0,PTBO,1
PTCH1,"Patache",,47.27095614,-1.61917944,,,0,PTCH,1
PTCH2,"Patache",,47.27121209,-1.61959538,,,0,PTCH,1
PTEC1,"Polytech'",,47.28083566,-1.51350139,,,0,PTEC,1
PTEC2,"Polytech'",,47.28073259,-1.51389100,,,0,PTEC,1
PTGO1,"Poitou",,47.20924741,-1.46975761,,,0,PTGO,2
PTGO2,"Poitou",,47.20980829,-1.46913668,,,0,PTGO,2
PTIS1,"Plessis Tison",,47.23666684,-1.53346310,,,0,PTIS,1
PTIS2,"Plessis Tison",,47.23657256,-1.53358852,,,0,PTIS,1
PTL98,"CES Petite Lande",,47.17794233,-1.54956064,,,0,PTLA,1
PTNE1,"Platanes",,47.24560617,-1.52471966,,,0,PTNE,1
PTNE2,"Platanes",,47.24532337,-1.52509601,,,0,PTNE,1
PTON1,"Portillon",,47.14966104,-1.46869213,,,0,PTON,2
PTON2,"Portillon",,47.14928857,-1.46906172,,,0,PTON,2
PTON3,"Portillon",,47.14923355,-1.46800167,,,0,PTON,1
PTON4,"Portillon",,47.14866831,-1.46875363,,,0,PTON,2
PTPS1,"Printemps",,47.18850756,-1.50038685,,,0,PTPS,1
PTPS2,"Printemps",,47.18859741,-1.50039329,,,0,PTPS,1
PTQQ1,"Portricq",,47.26524864,-1.52177247,,,0,PTQQ,1
PTQQ2,"Portricq",,47.26508661,-1.52123154,,,0,PTQQ,1
PTRE1,"Portereau",,47.19211569,-1.47580611,,,0,PTRE,1
PTRE2,"Portereau",,47.19323576,-1.47733928,,,0,PTRE,1
PTRI1,"Patouillerie",,47.24523319,-1.58116812,,,0,PTRI,1
PTRI2,"Patouillerie",,47.24551617,-1.58079206,,,0,PTRI,1
PTUR1,"Pâtures",,47.30452472,-1.55638729,,,0,PTUR,1
PTUR2,"Pâtures",,47.30443488,-1.55638074,,,0,PTUR,1
PTVI1,"Pâtis Viaud",,47.13867871,-1.45761689,,,0,PTVI,1
PTVI2,"Pâtis Viaud",,47.13877290,-1.45749157,,,0,PTVI,1
PTYY1,"Planty",,47.17526907,-1.49494731,,,0,PTYY,1
PTYY2,"Planty",,47.17534576,-1.49534905,,,0,PTYY,1
PUCH1,"Pluchets",,47.21858103,-1.65443833,,,0,PUCH,1
PUCH2,"Pluchets",,47.21876071,-1.65445173,,,0,PUCH,1
PVIL1,"Petit Village",,47.21700643,-1.65048707,,,0,PVIL,2
PVIL2,"Petit Village",,47.21706433,-1.65141678,,,0,PVIL,2
PVLO1,"Pavillon",,47.14366941,-1.67948603,,,0,PVLO,1
PVLO2,"Pavillon",,47.14358417,-1.67934761,,,0,PVLO,1
PVT95,"Porte de Vertou",,47.18053688,-1.50443900,,,0,PVTO,1
PVT96,"Porte de Vertou",,47.17990156,-1.50188360,,,0,PVTO,1
PVTO1,"Porte de Vertou",,47.18095976,-1.50526192,,,0,PVTO,1
PVTO2,"Porte de Vertou",,47.18087870,-1.50499191,,,0,PVTO,1
PVTO5,"Porte de Vertou",,47.18053688,-1.50443900,,,0,PVTO,1
PVTO6,"Porte de Vertou",,47.18112627,-1.50567017,,,0,PVTO,1
PVTO7,"Porte de Vertou",,47.18053688,-1.50443900,,,0,PVTO,1
PXCE1,"Port aux Cerises",,47.31187743,-1.54129709,,,0,PXCE,2
PXCE2,"Port aux Cerises",,47.31187743,-1.54129709,,,0,PXCE,2
QANT1,"Quai des Antilles",,47.20374641,-1.56954034,,,0,QANT,1
QANT2,"Quai des Antilles",,47.20374641,-1.56954034,,,0,QANT,1
QBNA1,"Quai Brunais",,47.19643837,-1.66957006,,,0,QBNA,2
QBNA2,"Quai Brunais",,47.19619635,-1.66875905,,,0,QBNA,2
QSCO1,"Quai Surcouf",,47.19490685,-1.57788061,,,0,QSCO,1
QSCO2,"Quai Surcouf",,47.19490237,-1.57801242,,,0,QSCO,1
QTNE1,"Quintaine",,47.21663570,-1.46420283,,,0,QTNE,1
QTNE2,"Quintaine",,47.21669222,-1.46248846,,,0,QTNE,1
QTNE3,"Quintaine",,47.21678207,-1.46249484,,,0,QTNE,1
RABI1,"Rabine",,47.26138358,-1.64347712,,,0,RABI,1
RABI2,"Rabine",,47.26110495,-1.64372099,,,0,RABI,2
RAGO1,"Ragon",,47.16511879,-1.54255518,,,0,RAGO,1
RAGO2,"Ragon",,47.16530292,-1.54243645,,,0,RAGO,1
RAVA1,"Ravardière",,47.18381849,-1.66466204,,,0,RAVA,2
RAVA2,"Ravardière",,47.18379560,-1.66532092,,,0,RAVA,2
RAZA1,"Ranzay",,47.25333138,-1.53070103,,,0,RAZA,1
RAZA2,"Ranzay",,47.25316939,-1.53016020,,,0,RAZA,1
RAZA3,"Ranzay",,47.25218993,-1.52982481,,,0,RAZA,1
RAZA4,"Ranzay",,47.25390143,-1.52981631,,,0,RAZA,1
RAZA5,"Ranzay",,47.25267012,-1.52893360,,,0,RAZA,1
RBAL1,"Roche Ballue",,47.17969984,-1.65616350,,,0,RBAL,1
RBAL2,"Roche Ballue",,47.17953387,-1.65575479,,,0,RBAL,1
RBHI1,"René Bouhier",,47.20990103,-1.57131140,,,0,RBHI,2
RBHI2,"René Bouhier",,47.20986483,-1.56972265,,,0,RBHI,2
RBNI1,"Robinière",,47.16364228,-1.53558119,,,0,RBNI,2
RBNI2,"Robinière",,47.16470273,-1.53618611,,,0,RBNI,2
RBNI3,"Robinière",,47.16373212,-1.53558769,,,0,RBNI,2
RBRN1,"René Bernier",,47.19395122,-1.49919154,,,0,RBRN,1
RBRN2,"René Bernier",,47.19394244,-1.49945517,,,0,RBRN,1
RCAS1,"René Cassin",,47.26412673,-1.57646669,,,0,RCAS,1
RCAS2,"René Cassin",,47.26423448,-1.57594534,,,0,RCAS,1
RCAS3,"René Cassin",,47.26484515,-1.57387306,,,0,RCAS,1
RCAS4,"René Cassin",,47.26475083,-1.57399847,,,0,RCAS,1
RCAS5,"René Cassin",,47.26419866,-1.57700120,,,0,RCAS,1
RCAS6,"René Cassin",,47.26413120,-1.57633471,,,0,RCAS,1
RCER1,"Rocher",,47.21324277,-1.63949923,,,0,RCER,1
RCER2,"Rocher",,47.21305853,-1.63961773,,,0,RCER,1
RCPE1,"Route de la Chapelle",,47.25485941,-1.57618523,,,0,RCPE,1
RCPE2,"Route de la Chapelle",,47.25449556,-1.57629088,,,0,RCPE,1
RCUU1,"Rochu",,47.21510573,-1.66634106,,,0,RCUU,1
RCUU2,"Rochu",,47.21509657,-1.66660477,,,0,RCUU,1
RDFY1,"Raoul Dufy",,47.22263291,-1.59947632,,,0,RDFY,2
RDFY2,"Raoul Dufy",,47.22271825,-1.59961481,,,0,RDFY,1
RDGO1,"Radigois",,47.19305249,-1.51802149,,,0,RDGO,1
RDGO2,"Radigois",,47.19324983,-1.51750718,,,0,RDGO,1
RDIE1,"Rouaudière",,47.29420653,-1.58449495,,,0,RDIE,2
RDIE2,"Rouaudière",,47.29429637,-1.58450155,,,0,RDIE,2
RDMV1,"Rue de Mauves",,47.27152739,-1.43264535,,,0,RDMV,1
RDMV2,"Rue de Mauves",,47.27143322,-1.43277102,,,0,RDMV,1
RDNT1,"Rue de Nantes",,47.15107676,-1.53427678,,,0,RDNT,1
RDNT2,"Rue de Nantes",,47.15134630,-1.53429626,,,0,RDNT,1
REDR1,"Redras",,47.16474964,-1.50251433,,,0,REDR,1
REDR2,"Redras",,47.16458751,-1.50197447,,,0,REDR,1
REFR1,"Réfractaires",,47.30304372,-1.54687868,,,0,REFR,1
REFR2,"Réfractaires",,47.30275197,-1.54751948,,,0,REFR,1
RETA1,"Retas",,47.15485606,-1.53705860,,,0,RETA,1
RETA2,"Retas",,47.15495034,-1.53693338,,,0,RETA,1
REYN1,"Reynière",,47.25612645,-1.57865918,,,0,REYN,1
REYN2,"Reynière",,47.25583900,-1.57916728,,,0,REYN,1
RGNI1,"Reigniers",,47.13722374,-1.46622500,,,0,RGNI,1
RGNI2,"Reigniers",,47.13713824,-1.46608695,,,0,RGNI,1
RIND1,"Rue d'Indre",,47.20419106,-1.66420287,,,0,RIND,1
RIND2,"Rue d'Indre",,47.20401138,-1.66418944,,,0,RIND,1
RLEA1,"Rouleaux",,47.20026822,-1.46621185,,,0,RLEA,1
RLEA2,"Rouleaux",,47.20009287,-1.46606724,,,0,RLEA,1
RLON1,"Rennes - Longchamp",,47.23865543,-1.57063549,,,0,RLON,1
RLON2,"Rennes - Longchamp",,47.23795902,-1.56992338,,,0,RLON,1
RMAU1,"Roche Maurice",,47.19631886,-1.61828778,,,0,RMAU,2
RMAU2,"Roche Maurice",,47.19622902,-1.61828114,,,0,RMAU,1
RMNE1,"Romanet",,47.21149099,-1.60923120,,,0,RMNE,1
RMNE2,"Romanet",,47.21186391,-1.60886215,,,0,RMNE,1
RMNE3,"Romanet",,47.21214247,-1.60861833,,,0,RMNE,1
RMNE4,"Romanet",,47.21222328,-1.60888865,,,0,RMNE,1
RNAN1,"Renan",,47.21631491,-1.61302404,,,0,RNAN,1
RNAN2,"Renan",,47.21629683,-1.61355149,,,0,RNAN,1
RNDR1,"Renardières",,47.14969671,-1.60151056,,,0,RNDR,2
RNDR2,"Renardières",,47.14895992,-1.60198450,,,0,RNDR,2
RNIE1,"Rinière",,47.12905932,-1.63589246,,,0,RNIE,2
RNIE2,"Rinière",,47.12869086,-1.63612910,,,0,RNIE,2
RNLT1,"Renault",,47.26333453,-1.49543852,,,0,RNLT,2
RNLT2,"Renault",,47.26341561,-1.49570894,,,0,RNLT,1
RNRE1,"Renaudières",,47.29948308,-1.50796107,,,0,RNRE,1
RNRE2,"Renaudières",,47.29938883,-1.50808668,,,0,RNRE,1
RNTI1,"Reinetière",,47.25688956,-1.49153714,,,0,RNTI,1
RNTI2,"Reinetière",,47.25698816,-1.49127963,,,0,RNTI,1
ROCA1,"Rocade",,47.16334141,-1.47441804,,,0,ROCA,2
ROCA2,"Rocade",,47.16343126,-1.47442443,,,0,ROCA,1
ROET1,"Rouet",,47.14826668,-1.52139985,,,0,ROET,1
ROET2,"Rouet",,47.14859959,-1.52221594,,,0,ROET,1
RPAR1,"Rond-Point de Paris",,47.23434980,-1.53541116,,,0,RPAR,1
RPAR2,"Rond-Point de Paris",,47.23341589,-1.53640139,,,0,RPAR,1
RPAR3,"Rond-Point de Paris",,47.23404038,-1.53657884,,,0,RPAR,2
RPAR4,"Rond-Point de Paris",,47.23364875,-1.53483148,,,0,RPAR,2
RPBL1,"République",,47.20559819,-1.55474101,,,0,RPBL,2
RPBL2,"République",,47.20560265,-1.55460917,,,0,RPBL,1
RPBL3,"République",,47.20440793,-1.55531525,,,0,RPBL,1
RPBL4,"République",,47.20521654,-1.55537406,,,0,RPBL,1
RPCH1,"Repos de Chasse",,47.21655958,-1.59797194,,,0,RPCH,1
RPCH2,"Repos de Chasse",,47.21668523,-1.59956751,,,0,RPCH,1
RPSI1,"Ripossière",,47.19159708,-1.53456459,,,0,RPSI,1
RPSI2,"Ripossière",,47.19221273,-1.53500550,,,0,RPSI,1
RQIO9,"Trentemoult Roquios",,47.19547324,-1.58241481,,,0,RQIO,1
RREN1,"Rond-Point de Rennes",,47.23253160,-1.56529557,,,0,RREN,1
RREN2,"Rond-Point de Rennes",,47.23262145,-1.56530213,,,0,RREN,1
RREN3,"Rond-Point de Rennes",,47.23303941,-1.56625824,,,0,RREN,2
RREN4,"Rond-Point de Rennes",,47.23322804,-1.56600754,,,0,RREN,2
RROL1,"Romain Rolland",,47.20653156,-1.60939416,,,0,RROL,1
RROL2,"Romain Rolland",,47.20677852,-1.61007323,,,0,RROL,1
RSCO1,"Robert Scott",,47.18690928,-1.45892159,,,0,RSCO,1
RSCO2,"Robert Scott",,47.18687453,-1.45997600,,,0,RSCO,1
RSLI1,"Rousselière",,47.17565873,-1.51835430,,,0,RSLI,1
RSLI2,"Rousselière",,47.17550550,-1.51755075,,,0,RSLI,1
RSNB1,"Rosenberg",,47.23568862,-1.65981468,,,0,RSNB,2
RSNB2,"Rosenberg",,47.23559878,-1.65980796,,,0,RSNB,2
RSRA1,"Roseraie",,47.26079610,-1.52833053,,,0,RSRA,1
RSRA2,"Roseraie",,47.26061641,-1.52831754,,,0,RSRA,1
RTSC1,"Recteur Schmitt",,47.25222202,-1.55297564,,,0,RTSC,1
RTSC2,"Recteur Schmitt",,47.25187154,-1.55268559,,,0,RTSC,1
RTSC3,"Recteur Schmitt",,47.25231631,-1.55285022,,,0,RTSC,1
RTSC4,"Recteur Schmitt",,47.25240171,-1.55298871,,,0,RTSC,2
RTSC5,"Recteur Schmitt",,47.25312492,-1.55290905,,,0,RTSC,2
RTSC6,"Recteur Schmitt",,47.25266234,-1.55327223,,,0,RTSC,1
RUET1,"Ruette",,47.23355399,-1.51075885,,,0,RUET,1
RUET2,"Ruette",,47.23335669,-1.51127357,,,0,RUET,1
RVAN1,"Rond-Point de Vannes",,47.23011166,-1.57292030,,,0,RVAN,1
RVAN2,"Rond-Point de Vannes",,47.22975675,-1.57276213,,,0,RVAN,1
RVAN3,"Rond-Point de Vannes",,47.22956812,-1.57301279,,,0,RVAN,1
RVAN4,"Rond-Point de Vannes",,47.22978359,-1.57197075,,,0,RVAN,1
RVDI1,"Rivaudière",,47.22717663,-1.65071629,,,0,RVDI,1
RVDI2,"Rivaudière",,47.22710048,-1.65031394,,,0,RVDI,1
RVER1,"Roches Vertes",,47.18519466,-1.52406118,,,0,RVER,1
RVER2,"Roches Vertes",,47.18490744,-1.52456891,,,0,RVER,1
RZEE1,"Razée",,47.21476907,-1.46618508,,,0,RZEE,1
RZEE2,"Razée",,47.21495313,-1.46606598,,,0,RZEE,1
SADU1,"Santos Dumont",,47.25953906,-1.56832529,,,0,SADU,1
SADU2,"Santos Dumont",,47.25937277,-1.56791625,,,0,SADU,1
SADU3,"Santos Dumont",,47.25950282,-1.56673508,,,0,SADU,1
SADU4,"Santos Dumont",,47.25941297,-1.56672852,,,0,SADU,2
SAGL1,"St-Aignan de Grand Lieu",,47.12316599,-1.63439989,,,0,SAGL,1
SAIG1,"St-Aignan",,47.20803766,-1.57844471,,,0,SAIG,1
SAIG2,"St-Aignan",,47.20813199,-1.57831944,,,0,SAIG,1
SALE1,"Salentine",,47.24856478,-1.61024769,,,0,SALE,1
SALE3,"Salentine",,47.24865011,-1.61038626,,,0,SALE,1
SAOR1,"Sables d'Or",,47.26509240,-1.45587347,,,0,SAOR,1
SAPI2,"Saupin",,47.18480285,-1.47634217,,,0,SAPI,2
SAPI3,"Saupin",,47.18401164,-1.47575740,,,0,SAPI,1
SATR1,"Sautron",,47.26538705,-1.68386822,,,0,SATR,1
SAVA1,"Savarières",,47.20867788,-1.48967395,,,0,SAVA,1
SAVA2,"Savarières",,47.20857489,-1.49006308,,,0,SAVA,1
SAVA3,"Savarières",,47.20823738,-1.48937812,,,0,SAVA,2
SAVA4,"Savarières",,47.20806206,-1.48923342,,,0,SAVA,2
SBAI1,"St-Blaise",,47.16720837,-1.46914664,,,0,SBAI,1
SBAI2,"St-Blaise",,47.16738808,-1.46915941,,,0,SBAI,1
SBLL1,"Sébilleau",,47.20510837,-1.53184154,,,0,SBLL,1
SBLL2,"Sébilleau",,47.20484325,-1.53169021,,,0,SBLL,1
SBSA1,"St-Jean-Baptiste de la Salle",,47.23342883,-1.56007173,,,0,SBSA,1
SBSA2,"St-Jean-Baptiste de la Salle",,47.23350975,-1.56034209,,,0,SBSA,1
SCHW3,"Schweitzer",,47.29486448,-1.49518502,,,0,SCHW,1
SCHW4,"Schweitzer",,47.29469355,-1.49490801,,,0,SCHW,1
SCLE1,"St-Clément",,47.22217173,-1.54669235,,,0,SCLE,1
SCLE2,"St-Clément",,47.22188441,-1.54720031,,,0,SCLE,1
SDAV1,"Square Daviais",,47.21154216,-1.55742033,,,0,SDAV,1
SDAV2,"Square Daviais",,47.21154662,-1.55728847,,,0,SDAV,1
SDON1,"St-Donatien",,47.22941061,-1.54034242,,,0,SDON,1
SDON2,"St-Donatien",,47.22894363,-1.54083745,,,0,SDON,1
SECH1,"Schoelcher",,47.22040335,-1.62773627,,,0,SECH,1
SECH2,"Schoelcher",,47.22065473,-1.62828372,,,0,SECH,1
SEIL1,"Seil",,47.19388619,-1.57080276,,,0,SEIL,1
SEIL2,"Seil",,47.19424557,-1.57082900,,,0,SEIL,1
SEIL3,"Seil",,47.19453746,-1.57018962,,,0,SEIL,1
SEIL4,"Seil",,47.19466797,-1.57165266,,,0,SEIL,1
SERC1,"Sercel",,47.26686483,-1.48947308,,,0,SERC,1
SERC2,"Sercel",,47.26686483,-1.48947308,,,0,SERC,1
SEVR1,"Sèvres",,47.18616678,-1.52730200,,,0,SEVR,1
SEVR2,"Sèvres",,47.18667934,-1.52813168,,,0,SEVR,1
SFEL1,"St-Félix",,47.23156810,-1.55649825,,,0,SFEL,1
SFEL2,"St-Félix",,47.23120426,-1.55660399,,,0,SFEL,1
SFEL3,"St-Félix",,47.23120872,-1.55647209,,,0,SFEL,2
SFRA1,"San-Francisco",,47.21751606,-1.51634714,,,0,SFRA,1
SFRA2,"San-Francisco",,47.21798734,-1.51572013,,,0,SFRA,1
SGRA1,"Sageran",,47.21954128,-1.57122242,,,0,SGRA,2
SHMD1,"St-Hermeland",,47.14426175,-1.69603334,,,0,SHMD,1
SILL1,"Sillon de Bretagne",,47.24555079,-1.60883481,,,0,SILL,1
SILL2,"Sillon de Bretagne",,47.24556434,-1.60843901,,,0,SILL,1
SILL3,"Sillon de Bretagne",,47.24573499,-1.60871614,,,0,SILL,1
SILL4,"Sillon de Bretagne",,47.24555982,-1.60857095,,,0,SILL,1
SINI1,"Sinière",,47.22549193,-1.67848945,,,0,SINI,1
SINI2,"Sinière",,47.22569458,-1.67784354,,,0,SINI,1
SJAC2,"St-Jacques",,47.19616724,-1.53793433,,,0,SJAC,1
SJAC4,"St-Jacques",,47.19401533,-1.53764642,,,0,SJAC,1
SJBO1,"St-Jean-de-Boiseau",,47.19585671,-1.72476572,,,0,SJBO,1
SJBO2,"St-Jean-de-Boiseau",,47.19585207,-1.72489753,,,0,SJBO,1
SJEA1,"St-Jean",,47.19178010,-1.52374341,,,0,SJEA,1
SJEA3,"St-Jean",,47.19178452,-1.52361161,,,0,SJEA,1
SJPO1,"St-Joseph de Porterie",,47.26793641,-1.51680624,,,0,SJPO,1
SJPO2,"St-Joseph de Porterie",,47.26784216,-1.51693176,,,0,SJPO,1
SLAU1,"St-Laurent",,47.22357637,-1.59822363,,,0,SLAU,1
SLAU2,"St-Laurent",,47.22306432,-1.59739271,,,0,SLAU,1
SLCE1,"Ste-Luce",,47.25035223,-1.48498474,,,0,SLCE,1
SLCE2,"Ste-Luce",,47.25034785,-1.48511670,,,0,SLCE,1
SLDA3,"Solidarité",,47.21718879,-1.58744262,,,0,SLDA,1
SLDA4,"Solidarité",,47.21727863,-1.58744921,,,0,SLDA,2
SLGE1,"Salorges",,47.20473102,-1.57503087,,,0,SLGE,2
SLGE2,"Salorges",,47.20538231,-1.57441766,,,0,SLGE,1
SLVI1,"St-Léger-les-Vignes",,47.13657004,-1.73030412,,,0,SLVI,1
SLVI2,"St-Léger-les-Vignes",,47.13631449,-1.72988870,,,0,SLVI,1
SMAR1,"St-Martin",,47.21344493,-1.69331638,,,0,SMAR,2
SMAR2,"St-Martin",,47.21336432,-1.69304592,,,0,SMAR,1
SMHI1,"St-Mihiel",,47.22356660,-1.55340397,,,0,SMHI,1
SMHI2,"St-Mihiel",,47.22311737,-1.55337130,,,0,SMHI,1
SMIC1,"St-Michel",,47.22415208,-1.64440886,,,0,SMIC,1
SMIC2,"St-Michel",,47.22414752,-1.64454074,,,0,SMIC,1
SNIC1,"St-Nicolas",,47.21571590,-1.55917818,,,0,SNIC,1
SNIC2,"St-Nicolas",,47.21558147,-1.56049028,,,0,SNIC,1
SNTA1,"Sanitat",,47.21078563,-1.56912899,,,0,SNTA,2
SNTA2,"Sanitat",,47.21037662,-1.56790955,,,0,SNTA,1
SNUC1,"Stade SNUC",,47.22794281,-1.58109165,,,0,SNUC,2
SNUC2,"Stade SNUC",,47.22806851,-1.58004309,,,0,SNUC,2
SOCH1,"Souchais",,47.30774759,-1.48962120,,,0,SOCH,1
SOEC1,"Souchais École",,47.30367598,-1.49833277,,,0,SOEC,1
SOEC2,"Souchais École",,47.30357297,-1.49872258,,,0,SOEC,1
SORI1,"Sorin",,47.19515251,-1.56798816,,,0,SORI,2
SORI2,"Sorin",,47.19533667,-1.56786946,,,0,SORI,1
SOUI1,"Souillarderie",,47.23841806,-1.51613393,,,0,SOUI,1
SOUI2,"Souillarderie",,47.23815293,-1.51598259,,,0,SOUI,1
SOUI4,"Souillarderie",,47.23779795,-1.51582478,,,0,SOUI,1
SOUI5,"Souillarderie",,47.23823396,-1.51625291,,,0,SOUI,1
SOWE1,"Soweto",,47.23327207,-1.65156746,,,0,SOWE,2
SOWE2,"Soweto",,47.23327207,-1.65156746,,,0,SOWE,2
SPHI1,"Saphirs",,47.20494966,-1.65791541,,,0,SPHI,1
SPHI2,"Saphirs",,47.20497251,-1.65725626,,,0,SPHI,1
SPIN1,"Saupin",,47.21327811,-1.53798381,,,0,SPIN,1
SPRU1,"Sully Prudhomme",,47.23623994,-1.59664277,,,0,SPRU,1
SPRU2,"Sully Prudhomme",,47.23615460,-1.59650425,,,0,SPRU,1
SPSA1,"St-Paul-Salengro",,47.18436498,-1.54606358,,,0,SPSA,1
SPSA2,"St-Paul-Salengro",,47.18534886,-1.54626705,,,0,SPSA,1
SRDI1,"Sarradin",,47.22056982,-1.57010774,,,0,SRDI,1
SRNI1,"Les Sorinières",,47.15918543,-1.51809294,,,0,SRNI,1
SRTR1,"Sartre",,47.21420827,-1.64023194,,,0,SRTR,2
SRTR2,"Sartre",,47.21463472,-1.64092461,,,0,SRTR,2
SSEB1,"St-Sébastien-sur-Loire",,47.20751612,-1.50293935,,,0,SSEB,1
SSEB2,"St-Sébastien-sur-Loire",,47.20751172,-1.50307119,,,0,SSEB,1
SSTA1,"St-Stanislas",,47.22220189,-1.55647763,,,0,SSTA,1
SSTA2,"St-Stanislas",,47.22281299,-1.55705093,,,0,SSTA,1
STBS1,"Stade",,47.19124895,-1.70723769,,,0,STBS,1
STBS2,"Stade",,47.19131565,-1.70790343,,,0,STBS,1
STBS3,"Stade",,47.19105077,-1.70775128,,,0,STBS,1
STHR1,"Alexandre Vincent-Ste-Thérèse",,47.23291986,-1.57775371,,,0,STHR,1
STHR2,"Alexandre Vincent-Ste-Thérèse",,47.23266376,-1.57733827,,,0,STHR,1
STPI1,"St-Pierre",,47.21812159,-1.55195050,,,0,STPI,1
STPI2,"St-Pierre",,47.21813049,-1.55168676,,,0,STPI,1
STXU1,"St-Exupéry",,47.15289572,-1.59487984,,,0,STXU,1
STXU2,"St-Exupéry",,47.15298556,-1.59488643,,,0,STXU,1
SUCO2,"Surcouf",,47.26884475,-1.44581947,,,0,SUCO,2
SVAU1,"Savaudière",,47.28925918,-1.51477024,,,0,SVAU,1
SVAU2,"Savaudière",,47.28901168,-1.51409057,,,0,SVAU,1
SVDI1,"Solvardière",,47.21820105,-1.64198298,,,0,SVDI,1
SVDI2,"Solvardière",,47.21810211,-1.64224002,,,0,SVDI,1
SVIN1,"Stévin",,47.26005760,-1.63491088,,,0,SVIN,1
SVIN2,"Stévin",,47.26007577,-1.63438301,,,0,SVIN,1
SVNN1,"Savonnières",,47.19757493,-1.66278320,,,0,SVNN,1
SVNN2,"Savonnières",,47.19749882,-1.66238105,,,0,SVNN,1
SYRM1,"Syrma",,47.27694527,-1.47060947,,,0,SYRM,1
SYRM2,"Syrma",,47.27713368,-1.47035823,,,0,SYRM,1
TADI2,"Taillandier",,47.21434260,-1.71651857,,,0,TADI,2
TAID1,"Toutes Aides",,47.22646431,-1.52347007,,,0,TAID,1
TAID2,"Toutes Aides",,47.22611817,-1.52304846,,,0,TAID,1
TAID3,"Toutes Aides",,47.22615791,-1.52186142,,,0,TAID,1
TBAU1,"Thébaudières",,47.31079318,-1.36020747,,,0,TBAU,2
TBAU2,"Thébaudières",,47.31056591,-1.35886767,,,0,TBAU,2
TBCH1,"Trébuchet",,47.21977697,-1.54559314,,,0,TBCH,1
TBCH2,"Trébuchet",,47.22027162,-1.54695102,,,0,TBCH,1
TBER1,"Tristan Bernard",,47.20510430,-1.46430888,,,0,TBER,2
TBER2,"Tristan Bernard",,47.20580571,-1.46488733,,,0,TBER,2
TBIL1,"Tbilissi",,47.21395698,-1.53922261,,,0,TBIL,1
TBIL2,"Tbilissi",,47.21383608,-1.54013913,,,0,TBIL,2
TBLY1,"Tabarly",,47.19534951,-1.54884250,,,0,TBLY,1
TBLY2,"Tabarly",,47.19552476,-1.54898736,,,0,TBLY,1
TCHE1,"Trois Chênes",,47.25818959,-1.47403605,,,0,TCHE,1
TCHE2,"Trois Chênes",,47.25961410,-1.47453446,,,0,TCHE,1
TDGA1,"Tredégar",,47.25469292,-1.60487941,,,0,TDGA,1
TDGA2,"Tredégar",,47.25473351,-1.60369180,,,0,TDGA,1
TDGA3,"Tredégar",,47.25398321,-1.60456251,,,0,TDGA,1
TEBS1,"Tertre",,47.19686485,-1.74466578,,,0,TEBS,2
TEBS2,"Tertre",,47.19668985,-1.74452027,,,0,TEBS,2
TEIF1,"Tour Eiffel",,47.19974358,-1.75492990,,,0,TEIF,1
TEIF2,"Tour Eiffel",,47.19958731,-1.75425712,,,0,TEIF,1
TENA1,"Tertre",,47.21442014,-1.60786096,,,0,TENA,1
TENA2,"Tertre",,47.21476597,-1.60828303,,,0,TENA,1
TENA3,"Tertre",,47.21386794,-1.60557305,,,0,TENA,1
TENA4,"Tertre",,47.21392169,-1.60663452,,,0,TENA,2
TENA5,"Tertre",,47.21455059,-1.60668087,,,0,TENA,1
TENA6,"Tertre",,47.21455511,-1.60654901,,,0,TENA,1
TERR1,"Terray",,47.25182472,-1.52728517,,,0,TERR,1
TERR2,"Terray",,47.25148302,-1.52673138,,,0,TERR,1
THAT1,"Théatre",,47.21571204,-1.72878494,,,0,THAT,1
THAT2,"Théatre",,47.21643537,-1.72870770,,,0,THAT,1
THCE1,"Centre de Thouaré-sur-Loire",,47.26655719,-1.44142385,,,0,THCE,1
THCE2,"Centre de Thouaré-sur-Loire",,47.26655287,-1.44155584,,,0,THCE,1
THEB1,"Thébaudières",,47.24446859,-1.60624195,,,0,THEB,1
THEB2,"Thébaudières",,47.24437424,-1.60636726,,,0,THEB,1
TILL1,"Tillay",,47.22878637,-1.60654038,,,0,TILL,1
TILL2,"Tillay",,47.22879540,-1.60627659,,,0,TILL,1
TJOI1,"Toutes Joies",,47.22119467,-1.57292964,,,0,TJOI,1
TLDI1,"Télindière",,47.19622776,-1.73721646,,,0,TLDI,1
TLDI2,"Télindière",,47.19614258,-1.73707782,,,0,TLDI,1
TLSA1,"Talensac",,47.22149648,-1.55602969,,,0,TLSA,1
TLSA2,"Talensac",,47.22150539,-1.55576593,,,0,TLSA,1
TMET1,"Trois Métairies",,47.17639742,-1.50163238,,,0,TMET,1
TMET2,"Trois Métairies",,47.17665379,-1.50204702,,,0,TMET,1
TMLI1,"Tourmaline",,47.22141243,-1.63243835,,,0,TMLI,1
TMLI2,"Tourmaline",,47.22148411,-1.63297250,,,0,TMLI,1
TMOU1,"Trois Moulins",,47.17847503,-1.54444757,,,0,TMOU,1
TMOU2,"Trois Moulins",,47.17812452,-1.54415798,,,0,TMOU,1
TMSS1,"Trémissinière",,47.23819442,-1.54428528,,,0,TMSS,1
TMSS2,"Trémissinière",,47.23857601,-1.54365175,,,0,TMSS,1
TNVA1,"Terre Neuvas",,47.18593194,-1.59017178,,,0,TNVA,1
TNVA2,"Terre Neuvas",,47.18589150,-1.59135787,,,0,TNVA,1
TOSC1,"Toscane",,47.28299608,-1.54846574,,,0,TOSC,1
TOSC2,"Toscane",,47.28327006,-1.54835331,,,0,TOSC,1
TOTR1,"Tortière",,47.23522257,-1.54962352,,,0,TOTR,2
TOTR2,"Tortière",,47.23504288,-1.54961046,,,0,TOTR,2
TOUG1,"Tougas",,47.19414178,-1.63966591,,,0,TOUG,1
TOUG2,"Tougas",,47.19415088,-1.63940230,,,0,TOUG,1
TPCH1,"Terpsichore",,47.28237319,-1.50249485,,,0,TPCH,2
TPCH2,"Terpsichore",,47.28222424,-1.50155772,,,0,TPCH,2
TPOD1,"Tripode",,47.20850406,-1.54067800,,,0,TPOD,1
TPOD2,"Tripode",,47.20814468,-1.54065196,,,0,TPOD,1
TRCA1,"Tréca",,47.25007399,-1.50149834,,,0,TRCA,1
TRCA2,"Tréca",,47.25016823,-1.50137284,,,0,TRCA,1
TRIA1,"Trianon",,47.27322232,-1.43038312,,,0,TRIA,1
TRNE1,"Tribunes",,47.24908586,-1.56848774,,,0,TRNE,1
TRNE2,"Tribunes",,47.24997536,-1.56881726,,,0,TRNE,1
TROC1,"Trocardière",,47.18320348,-1.56975881,,,0,TROC,1
TROC2,"Trocardière",,47.18318560,-1.57028594,,,0,TROC,1
TRQU1,"Terres Quartières",,47.13473935,-1.65914894,,,0,TRQU,2
TRQU2,"Terres Quartières",,47.13473020,-1.65941226,,,0,TRQU,2
TTMO1,"Trentemoult",,47.19149315,-1.58291617,,,0,TTMO,1
TTMO2,"Trentemoult",,47.19189737,-1.58162446,,,0,TTMO,1
TTMO4,"Trentemoult",,47.19140779,-1.58277779,,,0,TTMO,1
TTMO5,"Trentemoult",,47.19189289,-1.58175626,,,0,TTMO,1
TZEL1,"Touzelles",,47.20819254,-1.46624635,,,0,TZEL,2
TZEL2,"Touzelles",,47.20854324,-1.46653560,,,0,TZEL,1
TZEL3,"Touzelles",,47.20807658,-1.46703109,,,0,TZEL,1
TZEL4,"Touzelles",,47.20835048,-1.46691839,,,0,TZEL,1
UBRU1,"Usine Brûlée",,47.19494901,-1.63192940,,,0,UBRU,2
UBRU2,"Usine Brûlée",,47.19494901,-1.63192940,,,0,UBRU,2
UGAZ1,"Usine à gaz",,47.19453490,-1.62040235,,,0,UGAZ,2
UGAZ2,"Usine à gaz",,47.19503391,-1.61898568,,,0,UGAZ,2
UTCH1,"Utrecht",,47.28314554,-1.55205018,,,0,UTCH,1
UTCH2,"Utrecht",,47.28314109,-1.55218221,,,0,UTCH,1
UTLO1,"Utrillo",,47.18233969,-1.56335465,,,0,UTLO,1
UTLO2,"Utrillo",,47.18206569,-1.56346680,,,0,UTLO,1
VAIL1,"Vaillant",,47.19962676,-1.67113033,,,0,VAIL,1
VAIL2,"Vaillant",,47.19962676,-1.67113033,,,0,VAIL,1
VALL1,"Vallée",,47.25078958,-1.57668104,,,0,VALL,1
VALL2,"Vallée",,47.25042573,-1.57678668,,,0,VALL,1
VARI1,"Vincent Auriol",,47.22180226,-1.59214384,,,0,VARI,1
VARI2,"Vincent Auriol",,47.22179776,-1.59227572,,,0,VARI,1
VCSO1,"Vaucanson",,47.21279517,-1.58156867,,,0,VCSO,1
VCSO2,"Vaucanson",,47.21279965,-1.58143682,,,0,VCSO,1
VDCE1,"Val du Cens",,47.26110679,-1.66449358,,,0,VDCE,1
VDCE2,"Val du Cens",,47.26108390,-1.66515341,,,0,VDCE,2
VDLO1,"Vieux Doulon",,47.23557528,-1.50416036,,,0,VDLO,1
VDLO2,"Vieux Doulon",,47.23539998,-1.50401554,,,0,VDLO,1
VDNI1,"Ville au Denis",,47.16231434,-1.62753008,,,0,VDNI,2
VDNI2,"Ville au Denis",,47.16269186,-1.62702977,,,0,VDNI,1
VDUR1,"Verdure",,47.19591839,-1.65340905,,,0,VDUR,2
VDUR2,"Verdure",,47.19547375,-1.65324375,,,0,VDUR,1
VEAG1,"Véga",,47.28005981,-1.46355268,,,0,VEAG,1
VEAG2,"Véga",,47.27966563,-1.46458336,,,0,VEAG,1
VEGE1,"Verger",,47.29309160,-1.49704348,,,0,VEGE,2
VEGE2,"Verger",,47.29308722,-1.49717554,,,0,VEGE,1
VEIE1,"Verrière",,47.27693745,-1.57052304,,,0,VEIE,2
VEIE2,"Verrière",,47.27684313,-1.57064848,,,0,VEIE,2
VEND1,"Vendée",,47.20830260,-1.46836878,,,0,VEND,1
VEND2,"Vendée",,47.20829389,-1.46863248,,,0,VEND,1
VEPR1,"Vesprées",,47.24600009,-1.50213173,,,0,VEPR,1
VEPR2,"Vesprées",,47.24580282,-1.50264660,,,0,VEPR,1
VERL1,"Verlaine",,47.23386817,-1.59488151,,,0,VERL,2
VERL2,"Verlaine",,47.23333811,-1.59457807,,,0,VERL,2
VEXP1,"Village Expo",,47.21499383,-1.61477719,,,0,VEXP,1
VEXP2,"Village Expo",,47.21462089,-1.61514622,,,0,VEXP,1
VFOU1,"Vieux Four",,47.19073369,-1.70138463,,,0,VFOU,1
VFOU2,"Vieux Four",,47.19093184,-1.70087103,,,0,VFOU,1
VGAC1,"Vincent Gâche",,47.20662036,-1.54847140,,,0,VGAC,1
VGAC2,"Vincent Gâche",,47.20635971,-1.54818815,,,0,VGAC,1
VGAC3,"Vincent Gâche",,47.20611684,-1.54737753,,,0,VGAC,1
VGAC4,"Vincent Gâche",,47.20591048,-1.54815553,,,0,VGAC,1
VGAC5,"Vincent Gâche",,47.20609906,-1.54790490,,,0,VGAC,2
VIAR1,"Viarme-Talensac",,47.22153867,-1.56277510,,,0,VIAR,1
VIAR2,"Viarme-Talensac",,47.22118375,-1.56261703,,,0,VIAR,1
VIER1,"Viv'Erdre",,47.28554377,-1.55037168,,,0,VIER,2
VIER2,"Viv'Erdre",,47.28563361,-1.55037822,,,0,VIER,2
VILE1,"Violettes",,47.19813167,-1.50887313,,,0,VILE,1
VILE2,"Violettes",,47.19748953,-1.50922341,,,0,VILE,1
VINE1,"Villeneuve",,47.19411407,-1.51320907,,,0,VINE,1
VINE2,"Villeneuve",,47.19391235,-1.51385522,,,0,VINE,2
VISO1,"Vison",,47.24421766,-1.50967453,,,0,VISO,1
VISO2,"Vison",,47.24448280,-1.50982586,,,0,VISO,1
VIVI1,"Viviers",,47.17308163,-1.48488496,,,0,VIVI,1
VIVI2,"Viviers",,47.17325259,-1.48516132,,,0,VIVI,1
VRIE1,"Vrière",,47.28327261,-1.55629479,,,0,VRIE,1
VRIE2,"Vrière",,47.28210909,-1.55607767,,,0,VRIE,1
VRPD1,"Vert Praud",,47.16649613,-1.54978652,,,0,VRPD,1
VRPD2,"Vert Praud",,47.16658153,-1.54992478,,,0,VRPD,1
VSCO1,"Vincent Scotto",,47.25169084,-1.56603245,,,0,VSCO,1
VSCO2,"Vincent Scotto",,47.25155186,-1.56747736,,,0,VSCO,1
VSCO4,"Vincent Scotto",,47.25240959,-1.56608492,,,0,VSCO,2
VTNN1,"Vertonne",,47.18699783,-1.49433357,,,0,DPVT,2
VTNN2,"Vertonne",,47.18656173,-1.49390603,,,0,DPVT,2
VTOU1,"Vertou",,47.16920963,-1.47126986,,,0,VTOU,1
VTOU2,"Vertou",,47.16885458,-1.47111255,,,0,VTOU,1
VVRE2,"Vièvre",,47.19806610,-1.81440774,,,0,VVRE,1
WATT1,"Wattignies",,47.20407259,-1.54656837,,,0,WATT,1
WATT2,"Wattignies",,47.20380749,-1.54641697,,,0,WATT,1
WATT3,"Wattignies",,47.20416688,-1.54644305,,,0,WATT,2
WDIS1,"Walt Disney",,47.19434794,-1.48997084,,,0,WDIS,1
WDIS2,"Walt Disney",,47.19488704,-1.49000938,,,0,WDIS,1
XBON1,"Croix Bonneau",,47.20962828,-1.59521524,,,0,XBON,1
XBON2,"Croix Bonneau",,47.20961029,-1.59574262,,,0,XBON,1
XBON3,"Croix Bonneau",,47.21040088,-1.59632944,,,0,XBON,1
XBON4,"Croix Bonneau",,47.21049072,-1.59633605,,,0,XBON,1
XBON6,"Croix Bonneau",,47.20961479,-1.59561078,,,0,XBON,2
XJAN1,"Croix Jeannette",,47.17118328,-1.62369582,,,0,XJAN,1
XREZ1,"Croix de Rezé",,47.17914472,-1.55929106,,,0,XREZ,1
XREZ2,"Croix de Rezé",,47.17933333,-1.55904059,,,0,XREZ,1
XREZ3,"Croix de Rezé",,47.17936007,-1.55824994,,,0,XREZ,1
XREZ4,"Croix de Rezé",,47.18005656,-1.55896111,,,0,XREZ,1
XSYY1,"Croisy",,47.25375800,-1.62690245,,,0,XSYY,2
XSYY2,"Croisy",,47.25341677,-1.62634800,,,0,XSYY,2
XTRU1,"Croix Truin",,47.19137959,-1.71121179,,,0,XTRU,1
XTRU2,"Croix Truin",,47.19136106,-1.71173896,,,0,XTRU,1
ZENI1,"Zénith",,47.23052822,-1.62928013,,,0,ZENI,1
ZENI2,"Zénith",,47.23061352,-1.62941868,,,0,ZENI,1
ZOLA1,"Zola",,47.21381063,-1.58613736,,,0,ZOLA,2
ZOLA2,"Zola",,47.21377015,-1.58468035,,,0,ZOLA,2
ZOLA3,"Zola",,47.21403976,-1.58734384,,,0,ZOLA,1
ZOLA4,"Zola",,47.21506845,-1.58622958,,,0,ZOLA,2
